Version,Time,Roll_Target,Pitch_Target,Yaw_Target,Roll,Pitch,Yaw,Gyro_Roll_Target,Gyro_Pitch_Target,Gyro_Yaw_Target,Gyro_Roll,Gyro_Pitch,Gyro_Yaw,PWM1,PWM2,PWM3,PWM4
6,455,-0.0000,0.0000,0.1159,2.2816,-0.9596,0.1159,-4.5633,1.9191,-0.2318,0.0206,-0.0090,0.0075,1385,1393,1390,1382
6,456,-0.0000,0.0000,0.1159,2.2812,-0.9597,0.1159,-4.5624,1.9195,0.0004,-0.0326,0.0040,-0.0075,1000,1005,1002,1000
6,457,-0.0000,0.0000,0.1166,2.2819,-0.9608,0.1166,-4.5639,1.9217,0.0003,-0.0188,-0.0312,0.0040,1000,1005,1002,1000
6,458,-0.0000,0.0000,0.1180,2.2835,-0.9599,0.1180,-4.5669,1.9198,-0.0007,-0.0066,0.0358,0.0661,1000,1005,1002,1000
6,459,-0.0000,0.0000,0.1188,2.2838,-0.9604,0.1188,-4.5677,1.9207,-0.2377,-0.0064,-0.0369,0.0001,1385,1393,1390,1382
6,460,-0.0000,0.0000,0.1194,2.2856,-0.9599,0.1194,-4.5712,1.9197,0.0006,0.0595,0.0064,-0.0102,1000,1005,1002,1000
6,461,-0.0000,0.0000,0.1192,2.2853,-0.9615,0.1192,-4.5706,1.9230,-0.0001,-0.0345,-0.0242,0.0110,1000,1005,1002,1000
6,462,-0.0000,0.0000,0.1199,2.2853,-0.9623,0.1199,-4.5705,1.9246,0.0003,-0.0174,-0.0315,0.0028,1000,1005,1002,1000
6,463,-0.0000,0.0000,0.1209,2.2861,-0.9612,0.1209,-4.5721,1.9224,-0.2418,-0.0129,0.0447,0.0365,1385,1393,1390,1382
6,464,-0.0000,0.0000,0.1238,2.2865,-0.9623,0.1238,-4.5730,1.9247,-0.0007,0.0104,-0.0185,0.0659,1000,1005,1002,1000
6,465,-0.0000,0.0000,0.1246,2.2866,-0.9634,0.1246,-4.5731,1.9267,0.0004,-0.0258,-0.0216,-0.0170,1000,1005,1002,1000
6,466,-0.0000,0.0000,0.1240,2.2875,-0.9625,0.1240,-4.5749,1.9249,-0.2481,0.0088,-0.0069,-0.0002,1385,1393,1390,1382
6,467,-0.0000,0.0000,0.1249,2.2881,-0.9630,0.1249,-4.5761,1.9260,-0.0004,-0.0005,-0.0421,0.0260,1000,1005,1002,1000
6,468,-0.0000,0.0000,0.1252,2.2894,-0.9622,0.1252,-4.5788,1.9244,0.0001,0.0216,0.0123,0.0234,1000,1005,1002,1000
6,469,-0.0000,0.0000,0.1249,2.2900,-0.9631,0.1249,-4.5800,1.9262,0.0002,-0.0197,-0.0045,-0.0145,1000,1005,1002,1000
6,470,-0.0000,0.0000,0.1240,2.2911,-0.9628,0.1240,-4.5823,1.9256,-0.0004,-0.0035,0.0063,-0.0129,1000,1005,1002,1000
6,471,-0.0000,0.0000,0.1230,2.2908,-0.9631,0.1230,-4.5816,1.9263,-0.2460,-0.0039,0.0067,-0.0093,1385,1393,1390,1382
6,472,-0.0000,0.0000,0.1252,2.2919,-0.9637,0.1252,-4.5838,1.9274,-0.0005,0.0072,-0.0366,0.0547,1000,1005,1002,1000
6,473,-0.0000,0.0000,0.1268,2.2944,-0.9654,0.1268,-4.5887,1.9309,-0.0007,0.0339,-0.0209,0.0780,1000,1005,1002,1000
6,474,-0.0000,0.0000,0.1269,2.2963,-0.9656,0.1269,-4.5925,1.9313,0.0003,0.0308,-0.0048,-0.0175,1000,1005,1002,1000
6,475,-0.0000,0.0000,0.1275,2.2965,-0.9659,0.1275,-4.5930,1.9318,0.0001,-0.0363,-0.0046,0.0247,1000,1005,1002,1000
6,476,-0.0000,0.0000,0.1300,2.2973,-0.9664,0.1300,-4.5947,1.9329,0.0004,-0.0418,-0.0264,0.0179,1000,1005,1002,1000
6,477,-0.0000,0.0000,0.1290,2.2979,-0.9670,0.1290,-4.5959,1.9341,0.0006,-0.0152,-0.0071,-0.0308,1000,1005,1002,1000
6,478,-0.0000,0.0000,0.1299,2.2984,-0.9686,0.1299,-4.5968,1.9372,-0.0003,-0.0057,-0.0386,0.0291,1000,1005,1002,1000
6,479,-0.0000,0.0000,0.1287,2.3004,-0.9698,0.1287,-4.6007,1.9397,-0.0003,0.0057,-0.0533,-0.0014,1000,1005,1002,1000
6,480,-0.0000,0.0000,0.1285,2.3004,-0.9720,0.1285,-4.6007,1.9439,-0.0004,-0.0562,-0.0167,0.0222,1000,1005,1002,1000
6,481,-0.0000,0.0000,0.1276,2.3012,-0.9716,0.1276,-4.6024,1.9432,0.0004,0.0280,0.0029,-0.0196,1000,1005,1002,1000
6,482,-0.0000,0.0000,0.1272,2.3025,-0.9711,0.1272,-4.6050,1.9423,-0.0001,0.0050,0.0043,0.0069,1000,1005,1002,1000
6,483,-0.0000,0.0000,0.1252,2.3032,-0.9716,0.1252,-4.6065,1.9433,-0.0003,0.0016,0.0141,-0.0083,1000,1005,1002,1000
6,484,-0.0000,0.0000,0.1250,2.3040,-0.9712,0.1250,-4.6080,1.9424,0.0006,0.0010,0.0195,-0.0278,1000,1005,1002,1000
6,485,-0.0000,0.0000,0.1237,2.3038,-0.9711,0.1237,-4.6076,1.9421,-0.0007,-0.0397,-0.0079,-0.0053,1000,1005,1002,1000
6,486,-0.0000,0.0000,0.1227,2.3048,-0.9721,0.1227,-4.6097,1.9441,-0.2454,0.0134,-0.0459,-0.0173,1385,1393,1390,1382
6,487,-0.0000,0.0000,0.1221,2.3062,-0.9746,0.1221,-4.6124,1.9493,-0.0004,0.0053,-0.0431,0.0281,1000,1005,1002,1000
6,488,-0.0000,0.0000,0.1231,2.3075,-0.9757,0.1231,-4.6149,1.9514,-0.0002,0.0116,-0.0152,0.0206,1000,1005,1002,1000
6,489,-0.0000,0.0000,0.1240,2.3106,-0.9762,0.1240,-4.6212,1.9524,0.0003,0.0463,-0.0148,-0.0006,1000,1005,1002,1000
6,490,-0.0000,0.0000,0.1231,2.3117,-0.9779,0.1231,-4.6234,1.9558,-0.0010,0.0055,-0.0639,0.0538,1000,1005,1002,1000
6,491,-0.0000,0.0000,0.1232,2.3139,-0.9784,0.1232,-4.6278,1.9568,-0.0003,0.0593,0.0152,-0.0035,1000,1005,1002,1000
6,492,-0.0000,0.0000,0.1234,2.3186,-0.9787,0.1234,-4.6373,1.9574,-0.2468,0.0701,-0.0150,-0.0008,1385,1394,1390,1382
6,493,-0.0000,0.0000,0.1234,2.3201,-0.9776,0.1234,-4.6402,1.9551,-0.0001,0.0058,-0.0005,0.0118,1000,1005,1002,1000
6,494,-0.0000,0.0000,0.1229,2.3211,-0.9782,0.1229,-4.6422,1.9563,0.0006,0.0059,-0.0295,-0.0390,1000,1005,1002,1000
6,495,-0.0000,0.0000,0.1216,2.3226,-0.9790,0.1216,-4.6452,1.9580,-0.2433,0.0182,-0.0473,-0.0437,1385,1393,1390,1382
6,496,-0.0000,0.0000,0.1213,2.3262,-0.9790,0.1213,-4.6525,1.9580,0.0002,0.0725,0.0081,-0.0265,1000,1005,1002,1000
6,497,-0.0000,0.0000,0.1225,2.3275,-0.9789,0.1225,-4.6550,1.9578,-0.0002,-0.0053,-0.0077,0.0162,1000,1005,1002,1000
6,498,-0.0000,0.0000,0.1219,2.3302,-0.9795,0.1219,-4.6604,1.9589,-0.0004,0.0584,-0.0176,0.0228,1000,1005,1002,1000
6,499,-0.0000,0.0000,0.1221,2.3307,-0.9800,0.1221,-4.6613,1.9599,-0.2442,-0.0117,0.0172,0.0166,1385,1393,1390,1382
6,500,-0.0000,0.0000,0.1227,2.3304,-0.9795,0.1227,-4.6607,1.9590,-0.0007,-0.0131,-0.0116,0.0323,1000,1005,1002,1000
6,501,-0.0000,0.0000,0.1226,2.3314,-0.9813,0.1226,-4.6627,1.9626,-0.2451,0.0075,-0.0379,0.0127,1385,1394,1390,1382
6,502,-0.0000,0.0000,0.1250,2.3319,-0.9828,0.1250,-4.6639,1.9656,-0.2499,0.0065,-0.0050,0.0720,1385,1394,1390,1382
6,503,-0.0000,0.0000,0.1245,2.3319,-0.9840,0.1245,-4.6637,1.9679,0.0007,-0.0171,-0.0343,-0.0272,1000,1005,1002,1000
6,504,-0.0000,0.0000,0.1252,2.3336,-0.9836,0.1252,-4.6672,1.9672,-0.0003,-0.0033,0.0346,0.0167,1000,1005,1002,1000
6,505,-0.0000,0.0000,0.1247,2.3345,-0.9836,0.1247,-4.6691,1.9672,0.0001,0.0391,-0.0215,-0.0167,1000,1005,1002,1000
6,506,-0.0000,0.0000,0.1257,2.3359,-0.9835,0.1257,-4.6719,1.9671,-0.0003,0.0359,0.0198,0.0374,1000,1005,1002,1000
6,507,-0.0000,0.0000,0.1261,2.3382,-0.9849,0.1261,-4.6764,1.9699,-0.2522,0.0053,-0.0313,0.0233,1385,1394,1390,1382
6,508,-0.0000,0.0000,0.1262,2.3388,-0.9858,0.1262,-4.6775,1.9715,0.0007,-0.0001,-0.0410,-0.0416,1000,1005,1002,1000
6,509,-0.0000,0.0000,0.1259,2.3400,-0.9853,0.1259,-4.6800,1.9706,-0.0002,0.0146,-0.0125,-0.0001,1000,1005,1002,1000
6,510,-0.0000,0.0000,0.1264,2.3415,-0.9867,0.1264,-4.6830,1.9734,-0.0004,0.0339,-0.0626,0.0175,1000,1005,1002,1000
6,511,-0.0000,0.0000,0.1255,2.3418,-0.9878,0.1255,-4.6836,1.9756,0.0002,0.0097,0.0017,-0.0074,1000,1005,1002,1000
6,512,-0.0000,0.0000,0.1227,2.3437,-0.9883,0.1227,-4.6874,1.9767,0.0004,-0.0091,-0.0731,-0.0584,1000,1005,1002,1000
6,513,-0.0000,0.0000,0.1219,2.3449,-0.9887,0.1219,-4.6897,1.9773,-0.2438,0.0178,0.0029,0.0003,1385,1394,1390,1382
6,514,-0.0000,0.0000,0.1222,2.3474,-0.9882,0.1222,-4.6948,1.9763,-0.0005,0.0557,0.0091,0.0328,1000,1005,1002,1000
6,515,-0.0000,0.0000,0.1227,2.3492,-0.9883,0.1227,-4.6985,1.9765,-0.0007,0.0322,-0.0056,0.0150,1000,1005,1002,1000
6,516,-0.0000,0.0000,0.1231,2.3520,-0.9895,0.1231,-4.7040,1.9790,-0.0001,0.0271,-0.0317,0.0081,1000,1005,1002,1000
6,517,-0.0000,0.0000,0.1227,2.3540,-0.9892,0.1227,-4.7080,1.9783,-0.0005,0.0262,0.0245,0.0140,1000,1005,1002,1000
6,518,-0.0000,0.0000,0.1220,2.3558,-0.9896,0.1220,-4.7116,1.9791,0.0002,0.0276,-0.0067,-0.0229,1000,1005,1002,1000
6,519,-0.0000,0.0000,0.1228,2.3562,-0.9912,0.1228,-4.7125,1.9824,0.0002,-0.0450,-0.0461,0.0219,1000,1005,1002,1000
6,520,-0.0000,0.0000,0.1232,2.3555,-0.9896,0.1232,-4.7111,1.9792,-0.2464,-0.0389,0.0302,-0.0205,1385,1393,1390,1382
6,521,-0.0000,0.0000,0.1254,2.3555,-0.9899,0.1254,-4.7110,1.9798,-0.0009,-0.0033,-0.0126,0.0572,1000,1005,1002,1000
6,522,-0.0000,0.0000,0.1251,2.3593,-0.9904,0.1251,-4.7186,1.9808,0.0001,0.0509,-0.0049,-0.0059,1000,1005,1002,1000
6,523,-0.0000,0.0000,0.1257,2.3617,-0.9908,0.1257,-4.7234,1.9815,-0.0002,0.0558,-0.0103,0.0391,1000,1005,1002,1000
6,524,-0.0000,0.0000,0.1255,2.3599,-0.9914,0.1255,-4.7197,1.9829,0.0002,-0.0438,-0.0278,-0.0057,1000,1005,1002,1000
6,525,-0.0000,0.0000,0.1270,2.3620,-0.9925,0.1270,-4.7240,1.9851,-0.0004,0.0179,-0.0248,0.0499,1000,1005,1002,1000
6,526,-0.0000,0.0000,0.1283,2.3640,-0.9916,0.1283,-4.7280,1.9832,-0.0012,0.0078,0.0089,0.0703,1000,1005,1002,1000
6,527,-0.0000,0.0000,0.1299,2.3660,-0.9938,0.1299,-4.7321,1.9877,-0.0005,0.0249,-0.1012,0.0170,1000,1006,1002,1000
6,528,-0.0000,0.0000,0.1314,2.3668,-0.9936,0.1314,-4.7336,1.9872,-0.0007,-0.0057,-0.0097,0.0414,1000,1005,1002,1000
6,529,-0.0000,0.0000,0.1338,2.3688,-0.9931,0.1338,-4.7375,1.9862,-0.2675,0.0535,0.0178,0.0451,1385,1394,1390,1382
6,530,-0.0000,0.0000,0.1340,2.3705,-0.9933,0.1340,-4.7411,1.9866,0.0002,0.0263,-0.0308,-0.0254,1000,1005,1002,1000
6,531,-0.0000,0.0000,0.1364,2.3710,-0.9938,0.1364,-4.7420,1.9876,-0.0004,-0.0052,-0.0137,0.0600,1000,1005,1002,1000
6,532,-0.0000,0.0000,0.1364,2.3718,-0.9942,0.1364,-4.7436,1.9884,-0.0003,-0.0261,0.0390,0.0259,1000,1005,1002,1000
6,533,-0.0000,0.0000,0.1361,2.3721,-0.9941,0.1361,-4.7443,1.9882,-0.0001,0.0010,-0.0013,-0.0012,1000,1005,1002,1000
6,534,-0.0000,0.0000,0.1366,2.3742,-0.9959,0.1366,-4.7484,1.9917,-0.0001,0.0349,-0.0427,0.0214,1000,1005,1002,1000
6,535,-0.0000,0.0000,0.1376,2.3757,-0.9978,0.1376,-4.7514,1.9956,-0.2752,0.0201,-0.0590,0.0474,1385,1394,1390,1382
6,536,-0.0000,0.0000,0.1378,2.3774,-0.9980,0.1378,-4.7548,1.9960,0.0001,0.0253,-0.0163,-0.0134,1000,1005,1002,1000
6,537,-0.0000,0.0000,0.1380,2.3785,-0.9979,0.1380,-4.7569,1.9958,-0.0012,0.0255,0.0239,0.0581,1000,1005,1002,1000
6,538,-0.0000,0.0000,0.1383,2.3823,-0.9980,0.1383,-4.7646,1.9960,0.0007,0.0363,0.0042,-0.0042,1000,1005,1002,1000
6,539,-0.0000,0.0000,0.1372,2.3829,-0.9975,0.1372,-4.7658,1.9951,0.0004,-0.0099,0.0265,-0.0183,1000,1005,1002,1000
6,540,-0.0000,0.0000,0.1371,2.3829,-0.9968,0.1371,-4.7658,1.9937,0.0003,0.0101,0.0344,-0.0111,1000,1005,1002,1000
6,541,-0.0000,0.0000,0.1371,2.3821,-0.9968,0.1371,-4.7642,1.9937,-0.2742,-0.0015,-0.0089,-0.0176,1385,1394,1390,1382
6,542,-0.0000,0.0000,0.1380,2.3825,-0.9982,0.1380,-4.7650,1.9963,-0.0003,-0.0165,-0.0604,0.0170,1000,1005,1002,1000
6,543,-0.0000,0.0000,0.1388,2.3823,-0.9982,0.1388,-4.7646,1.9965,-0.0005,-0.0131,0.0102,0.0344,1000,1005,1002,1000
6,544,-0.0000,0.0000,0.1384,2.3816,-0.9977,0.1384,-4.7631,1.9955,0.0006,-0.0052,0.0316,-0.0281,1000,1005,1002,1000
6,545,-0.0000,0.0000,0.1398,2.3840,-0.9980,0.1398,-4.7679,1.9961,-0.0012,0.0050,-0.0169,0.0533,1000,1005,1002,1000
6,546,-0.0000,0.0000,0.1396,2.3844,-0.9977,0.1396,-4.7688,1.9953,-0.0001,0.0089,0.0159,0.0011,1000,1005,1002,1000
6,547,-0.0000,0.0000,0.1396,2.3866,-0.9963,0.1396,-4.7731,1.9927,0.0002,0.0582,0.0253,0.0126,1000,1005,1002,1000
6,548,-0.0000,0.0000,0.1382,2.3876,-0.9964,0.1382,-4.7752,1.9928,0.0006,0.0521,-0.0017,-0.0592,1000,1005,1002,1000
6,549,-0.0000,0.0000,0.1377,2.3900,-0.9961,0.1377,-4.7800,1.9923,0.0003,0.0312,0.0142,-0.0273,1000,1005,1002,1000
6,550,-0.0000,0.0000,0.1382,2.3895,-0.9962,0.1382,-4.7790,1.9924,-0.0010,-0.0176,0.0156,0.0697,1000,1005,1002,1000
6,551,-0.0000,0.0000,0.1398,2.3895,-0.9971,0.1398,-4.7790,1.9941,0.0004,-0.0311,-0.0142,0.0018,1000,1005,1002,1000
6,552,-0.0000,0.0000,0.1397,2.3899,-0.9976,0.1397,-4.7798,1.9953,-0.0001,0.0308,0.0048,-0.0075,1000,1005,1002,1000
6,553,-0.0000,0.0000,0.1401,2.3913,-0.9983,0.1401,-4.7826,1.9966,-0.0003,0.0440,-0.0202,0.0111,1000,1005,1002,1000
6,554,-0.0000,0.0000,0.1388,2.3929,-0.9989,0.1388,-4.7857,1.9978,0.0003,0.0317,-0.0101,-0.0497,1000,1005,1002,1000
6,555,-0.0000,0.0000,0.1393,2.3956,-0.9986,0.1393,-4.7913,1.9971,-0.0004,0.1149,0.0261,0.0435,1000,1006,1002,1000
6,556,-0.0000,0.0000,0.1394,2.3973,-0.9976,0.1394,-4.7945,1.9951,-0.0009,-0.0158,0.0121,0.0159,1000,1005,1002,1000
6,557,-0.0000,0.0000,0.1405,2.3984,-0.9985,0.1405,-4.7967,1.9970,0.0002,-0.0175,-0.0275,-0.0178,1000,1005,1002,1000
6,558,-0.0000,0.0000,0.1385,2.3994,-0.9986,0.1385,-4.7988,1.9971,0.0001,-0.0015,-0.0067,-0.0525,1000,1005,1002,1000
6,559,-0.0000,0.0000,0.1381,2.4000,-0.9976,0.1381,-4.8001,1.9952,0.0004,0.0107,0.0355,-0.0110,1000,1005,1002,1000
6,560,-0.0000,0.0000,0.1381,2.4008,-0.9985,0.1381,-4.8015,1.9969,0.0010,-0.0039,-0.0223,-0.0157,1000,1005,1002,1000
6,561,-0.0000,0.0000,0.1393,2.4023,-0.9983,0.1393,-4.8045,1.9966,-0.0008,0.0312,0.0119,0.0484,1000,1006,1002,1000
6,562,-0.0000,0.0000,0.1406,2.4027,-0.9990,0.1406,-4.8054,1.9979,0.0002,0.0093,0.0077,0.0387,1000,1005,1002,1000
6,563,-0.0000,0.0000,0.1410,2.4043,-0.9978,0.1410,-4.8087,1.9955,-0.0008,0.0338,0.0194,0.0656,1000,1006,1002,1000
6,564,-0.0000,0.0000,0.1426,2.4061,-0.9984,0.1426,-4.8122,1.9968,0.0004,0.0130,-0.0289,0.0091,1000,1006,1002,1000
6,565,-0.0000,0.0000,0.1414,2.4066,-0.9974,0.1414,-4.8131,1.9949,-0.2827,0.0296,0.0185,-0.0363,1385,1394,1390,1382
6,566,-0.0000,0.0000,0.1421,2.4082,-0.9970,0.1421,-4.8164,1.9941,-0.0005,0.0396,-0.0199,0.0226,1000,1006,1002,1000
6,567,-0.0000,0.0000,0.1436,2.4096,-0.9971,0.1436,-4.8193,1.9941,-0.0004,-0.0241,0.0084,0.0348,1000,1005,1002,1000
6,568,-0.0000,0.0000,0.1431,2.4091,-0.9954,0.1431,-4.8182,1.9908,0.0004,-0.0339,0.0179,-0.0301,1000,1005,1002,1000
6,569,-0.0000,0.0000,0.1425,2.4088,-0.9947,0.1425,-4.8176,1.9894,-0.0003,0.0062,-0.0166,0.0064,1000,1005,1002,1000
6,570,-0.0000,0.0000,0.1438,2.4109,-0.9950,0.1438,-4.8218,1.9899,-0.0004,0.0592,0.0194,0.0301,1000,1006,1002,1000
6,571,-0.0000,0.0000,0.1431,2.4124,-0.9945,0.1431,-4.8249,1.9890,-0.0009,0.0197,0.0029,0.0036,1000,1005,1002,1000
6,572,-0.0000,0.0000,0.1436,2.4113,-0.9945,0.1436,-4.8227,1.9889,-0.0005,0.0003,-0.0179,0.0187,1000,1005,1002,1000
6,573,-0.0000,0.0000,0.1444,2.4117,-0.9960,0.1444,-4.8234,1.9921,-0.2888,-0.0159,-0.0090,0.0499,1385,1394,1390,1382
6,574,-0.0000,0.0000,0.1448,2.4131,-0.9972,0.1448,-4.8261,1.9945,-0.0001,0.0073,-0.0339,-0.0078,1000,1005,1002,1000
6,575,-0.0000,0.0000,0.1457,2.4130,-0.9977,0.1457,-4.8261,1.9954,-0.0007,0.0128,-0.0138,0.0468,1000,1006,1002,1000
6,576,-0.0000,0.0000,0.1471,2.4119,-0.9979,0.1471,-4.8238,1.9958,-0.0002,-0.0419,-0.0301,0.0129,1000,1005,1002,1000
6,577,-0.0000,0.0000,0.1487,2.4125,-0.9988,0.1487,-4.8251,1.9977,-0.0008,0.0022,-0.0494,0.0522,1000,1006,1002,1000
6,578,-0.0000,0.0000,0.1483,2.4141,-1.0001,0.1483,-4.8282,2.0003,0.0001,-0.0197,-0.0208,-0.0261,1000,1005,1002,1000
6,579,-0.0000,0.0000,0.1495,2.4132,-1.0010,0.1495,-4.8264,2.0019,-0.0005,-0.0507,-0.0270,0.0725,1000,1006,1002,1000
6,580,-0.0000,0.0000,0.1501,2.4128,-1.0028,0.1501,-4.8257,2.0056,-0.0004,-0.0173,-0.0462,0.0180,1000,1006,1002,1000
6,581,-0.0000,0.0000,0.1480,2.4130,-1.0049,0.1480,-4.8260,2.0099,0.0006,-0.0082,-0.0703,-0.0448,1000,1005,1002,1000
6,582,-0.0000,0.0000,0.1471,2.4135,-1.0046,0.1471,-4.8270,2.0093,-0.2942,-0.0175,-0.0134,-0.0013,1385,1394,1390,1382
6,583,-0.0000,0.0000,0.1485,2.4135,-1.0049,0.1485,-4.8270,2.0098,-0.2971,-0.0097,-0.0128,0.0330,1385,1394,1390,1382
6,584,-0.0000,0.0000,0.1487,2.4155,-1.0077,0.1487,-4.8310,2.0154,-0.0001,0.0093,-0.0812,-0.0053,1000,1006,1002,1000
6,585,-0.0000,0.0000,0.1478,2.4162,-1.0079,0.1478,-4.8324,2.0158,-0.0004,0.0191,0.0068,-0.0155,1000,1005,1002,1000
6,586,-0.0000,0.0000,0.1485,2.4141,-1.0084,0.1485,-4.8283,2.0168,-0.0001,-0.0495,-0.0332,0.0065,1000,1005,1002,1000
6,587,-0.0000,0.0000,0.1501,2.4143,-1.0090,0.1501,-4.8286,2.0181,-0.0009,0.0029,-0.0146,0.0358,1000,1006,1002,1000
6,588,-0.0000,0.0000,0.1514,2.4148,-1.0083,0.1514,-4.8296,2.0166,-0.0002,0.0159,-0.0253,0.0279,1000,1006,1002,1000
6,589,-0.0000,0.0000,0.1514,2.4148,-1.0079,0.1514,-4.8296,2.0158,-0.0005,-0.0010,0.0005,0.0222,1000,1006,1002,1000
6,590,-0.0000,0.0000,0.1526,2.4149,-1.0088,0.1526,-4.8298,2.0175,-0.0001,-0.0110,-0.0027,0.0107,1000,1005,1002,1000
6,591,-0.0000,0.0000,0.1529,2.4150,-1.0093,0.1529,-4.8300,2.0185,0.0004,0.0154,-0.0115,-0.0317,1000,1005,1002,1000
6,592,-0.0000,0.0000,0.1533,2.4162,-1.0088,0.1533,-4.8324,2.0176,0.0001,0.0207,-0.0131,0.0139,1000,1006,1002,1000
6,593,-0.0000,0.0000,0.1527,2.4166,-1.0085,0.1527,-4.8331,2.0169,0.0001,-0.0416,0.0335,-0.0143,1000,1005,1002,1000
6,594,-0.0000,0.0000,0.1537,2.4169,-1.0094,0.1537,-4.8339,2.0189,0.0001,-0.0038,-0.0275,0.0302,1000,1006,1002,1000
6,595,-0.0000,0.0000,0.1536,2.4164,-1.0100,0.1536,-4.8328,2.0200,-0.0003,-0.0383,-0.0129,0.0133,1000,1005,1002,1000
6,596,-0.0000,0.0000,0.1535,2.4169,-1.0087,0.1535,-4.8337,2.0173,-0.0003,-0.0283,0.0433,0.0067,1000,1005,1002,1000
6,597,-0.0000,0.0000,0.1530,2.4161,-1.0093,0.1530,-4.8322,2.0187,0.0002,-0.0284,-0.0356,-0.0260,1000,1005,1002,1000
6,598,-0.0000,0.0000,0.1521,2.4164,-1.0095,0.1521,-4.8327,2.0189,0.0004,-0.0160,0.0258,-0.0165,1000,1005,1002,1000
6,599,-0.0000,0.0000,0.1519,2.4158,-1.0092,0.1519,-4.8316,2.0184,-0.0002,-0.0137,0.0127,-0.0001,1000,1005,1002,1000
6,600,-0.0000,0.0000,0.1532,2.4162,-1.0081,0.1532,-4.8324,2.0163,0.0002,0.0056,0.0267,-0.0040,1000,1005,1002,1000
6,601,-0.0000,0.0000,0.1523,2.4155,-1.0081,0.1523,-4.8310,2.0162,-0.3046,-0.0274,0.0112,0.0095,1385,1394,1390,1382
6,602,-0.0000,0.0000,0.1535,2.4160,-1.0080,0.1535,-4.8321,2.0160,-0.0003,-0.0125,-0.0131,0.0503,1000,1006,1002,1000
6,603,-0.0000,0.0000,0.1541,2.4154,-1.0062,0.1541,-4.8309,2.0124,-0.0005,-0.0320,0.0537,0.0367,1000,1005,1002,1000
6,604,-0.0000,0.0000,0.1541,2.4162,-1.0069,0.1541,-4.8324,2.0138,0.0001,-0.0077,-0.0217,-0.0204,1000,1005,1002,1000
6,605,-0.0000,0.0000,0.1557,2.4172,-1.0060,0.1557,-4.8344,2.0120,-0.0004,-0.0058,0.0474,0.0348,1000,1005,1002,1000
6,606,-0.0000,0.0000,0.1551,2.4165,-1.0054,0.1551,-4.8330,2.0109,-0.3101,-0.0338,0.0171,0.0211,1385,1394,1390,1382
6,607,-0.0000,0.0000,0.1537,2.4166,-1.0067,0.1537,-4.8332,2.0134,0.0004,-0.0236,-0.0252,-0.0396,1000,1005,1002,1000
6,608,-0.0000,0.0000,0.1536,2.4152,-1.0061,0.1536,-4.8305,2.0122,-0.0004,-0.0487,-0.0081,0.0067,1000,1005,1002,1000
6,609,-0.0000,0.0000,0.1564,2.4158,-1.0065,0.1564,-4.8316,2.0129,-0.0005,0.0267,-0.0014,0.0567,1000,1006,1002,1000
6,610,-0.0000,0.0000,0.1559,2.4181,-1.0064,0.1559,-4.8362,2.0128,-0.0001,0.0463,0.0190,-0.0172,1000,1006,1002,1000
6,611,-0.0000,0.0000,0.1565,2.4188,-1.0060,0.1565,-4.8375,2.0121,0.0006,-0.0009,0.0054,-0.0024,1000,1005,1002,1000
6,612,-0.0000,0.0000,0.1553,2.4182,-1.0073,0.1553,-4.8365,2.0145,0.0006,-0.0100,-0.0418,-0.0260,1000,1006,1002,1000
6,613,-0.0000,0.0000,0.1553,2.4177,-1.0062,0.1553,-4.8354,2.0124,-0.0008,-0.0362,0.0346,0.0366,1000,1005,1002,1000
6,614,-0.0000,0.0000,0.1570,2.4183,-1.0051,0.1570,-4.8366,2.0101,-0.0002,-0.0144,0.0163,0.0259,1000,1005,1002,1000
6,615,-0.0000,0.0000,0.1575,2.4183,-1.0050,0.1575,-4.8365,2.0099,-0.3150,-0.0167,0.0110,0.0229,1385,1394,1390,1382
6,616,-0.0000,0.0000,0.1604,2.4186,-1.0050,0.1604,-4.8373,2.0101,-0.0004,-0.0123,-0.0202,0.0733,1000,1006,1002,1000
6,617,-0.0000,0.0000,0.1601,2.4186,-1.0045,0.1601,-4.8372,2.0089,0.0006,0.0227,0.0299,-0.0204,1000,1005,1002,1000
6,618,-0.0000,0.0000,0.1598,2.4193,-1.0039,0.1598,-4.8386,2.0078,-0.0004,0.0084,0.0084,0.0100,1000,1005,1002,1000
6,619,-0.0000,0.0000,0.1607,2.4199,-1.0029,0.1607,-4.8397,2.0058,-0.0001,-0.0016,0.0337,0.0248,1000,1005,1002,1000
6,620,-0.0000,0.0000,0.1620,2.4214,-1.0028,0.1620,-4.8429,2.0057,-0.0009,0.0183,-0.0181,0.0406,1000,1006,1002,1000
6,621,-0.0000,0.0000,0.1627,2.4224,-1.0037,0.1627,-4.8448,2.0073,-0.0001,-0.0054,-0.0192,0.0110,1000,1006,1002,1000
6,622,-0.0000,0.0000,0.1649,2.4230,-1.0034,0.1649,-4.8461,2.0068,-0.0003,0.0009,0.0082,0.0471,1000,1006,1002,1000
6,623,-0.0000,0.0000,0.1634,2.4236,-1.0020,0.1634,-4.8473,2.0039,0.0002,0.0430,-0.0100,-0.0553,1000,1005,1002,1000
6,624,-0.0000,0.0000,0.1638,2.4234,-1.0012,0.1638,-4.8469,2.0025,-0.3275,-0.0286,0.0523,-0.0056,1385,1394,1390,1382
6,625,-0.0000,0.0000,0.1623,2.4222,-1.0024,0.1623,-4.8443,2.0048,-0.0002,-0.0043,-0.0223,-0.0010,1000,1006,1002,1000
6,626,-0.0000,0.0000,0.1636,2.4222,-1.0044,0.1636,-4.8445,2.0087,-0.0003,0.0333,-0.0695,0.0389,1000,1006,1002,1000
6,627,-0.0000,0.0000,0.1618,2.4238,-1.0040,0.1618,-4.8477,2.0079,-0.0001,0.0617,0.0043,-0.0263,1000,1006,1002,1000
6,628,-0.0000,0.0000,0.1638,2.4236,-1.0035,0.1638,-4.8473,2.0071,-0.0008,-0.0186,0.0304,0.0545,1000,1005,1002,1000
6,629,-0.0000,0.0000,0.1644,2.4253,-1.0027,0.1644,-4.8506,2.0053,-0.0002,0.0238,0.0096,0.0263,1000,1006,1002,1000
6,630,-0.0000,0.0000,0.1646,2.4228,-1.0028,0.1646,-4.8456,2.0057,0.0003,-0.0597,-0.0132,-0.0036,1000,1005,1002,1000
6,631,-0.0000,0.0000,0.1651,2.4233,-1.0031,0.1651,-4.8466,2.0062,-0.0003,-0.0100,-0.0062,0.0200,1000,1006,1002,1000
6,632,-0.0000,0.0000,0.1648,2.4228,-1.0032,0.1648,-4.8456,2.0063,0.0004,-0.0154,-0.0105,-0.0096,1000,1005,1002,1000
6,633,-0.0000,0.0000,0.1658,2.4216,-1.0040,0.1658,-4.8432,2.0079,-0.3315,-0.0443,-0.0065,-0.0068,1385,1394,1390,1382
6,634,-0.0000,0.0000,0.1684,2.4218,-1.0037,0.1684,-4.8436,2.0074,-0.0008,0.0146,0.0076,0.0825,1000,1006,1002,1000
6,635,-0.0000,0.0000,0.1695,2.4234,-1.0042,0.1695,-4.8467,2.0084,-0.0007,0.0332,-0.0329,0.0461,1000,1006,1002,1000
6,636,-0.0000,0.0000,0.1708,2.4230,-1.0042,0.1708,-4.8460,2.0084,-0.3416,-0.0203,0.0455,0.0260,1385,1394,1390,1382
6,637,-0.0000,0.0000,0.1711,2.4237,-1.0042,0.1711,-4.8474,2.0084,0.0006,-0.0063,-0.0136,0.0002,1000,1006,1002,1000
6,638,-0.0000,0.0000,0.1712,2.4233,-1.0038,0.1712,-4.8466,2.0077,-0.0001,-0.0154,-0.0056,-0.0176,1000,1005,1002,1000
6,639,-0.0000,0.0000,0.1718,2.4232,-1.0042,0.1718,-4.8464,2.0084,-0.0003,-0.0206,-0.0000,0.0374,1000,1006,1002,1000
6,640,-0.0000,0.0000,0.1736,2.4247,-1.0058,0.1736,-4.8494,2.0116,-0.0009,0.0061,-0.0580,0.0601,1000,1006,1002,1000
6,641,-0.0000,0.0000,0.1738,2.4245,-1.0054,0.1738,-4.8491,2.0108,-0.0003,-0.0049,0.0124,0.0117,1000,1005,1002,1000
6,642,-0.0000,0.0000,0.1742,2.4246,-1.0059,0.1742,-4.8492,2.0118,-0.3483,-0.0110,-0.0201,-0.0197,1385,1394,1390,1382
6,643,-0.0000,0.0000,0.1743,2.4248,-1.0057,0.1743,-4.8496,2.0114,-0.0005,-0.0009,0.0104,0.0059,1000,1005,1002,1000
6,644,-0.0000,0.0000,0.1770,2.4250,-1.0045,0.1770,-4.8500,2.0090,-0.0002,-0.0070,0.0222,0.0614,1000,1006,1002,1000
6,645,-0.0000,0.0000,0.1772,2.4272,-1.0042,0.1772,-4.8543,2.0085,0.0003,0.0591,0.0026,-0.0070,1000,1006,1002,1000
6,646,-0.0000,0.0000,0.1774,2.4269,-1.0042,0.1774,-4.8539,2.0084,-0.0001,-0.0141,-0.0052,0.0097,1000,1006,1002,1000
6,647,-0.0000,0.0000,0.1793,2.4262,-1.0039,0.1793,-4.8524,2.0079,-0.0009,-0.0272,0.0317,0.0599,1000,1005,1002,1000
6,648,-0.0000,0.0000,0.1792,2.4274,-1.0035,0.1792,-4.8548,2.0069,0.0002,0.0241,-0.0305,-0.0130,1000,1006,1002,1000
6,649,-0.0000,0.0000,0.1786,2.4287,-1.0029,0.1786,-4.8573,2.0058,0.0006,0.0325,0.0014,-0.0471,1000,1005,1002,1000
6,650,-0.0000,0.0000,0.1788,2.4312,-1.0009,0.1788,-4.8624,2.0019,-0.0003,0.0111,0.0377,0.0103,1000,1005,1002,1000
6,651,-0.0000,0.0000,0.1800,2.4313,-1.0011,0.1800,-4.8627,2.0021,-0.3600,-0.0031,-0.0040,0.0261,1385,1394,1390,1382
6,652,-0.0000,0.0000,0.1794,2.4323,-1.0013,0.1794,-4.8646,2.0026,0.0002,-0.0247,-0.0204,-0.0134,1000,1005,1002,1000
6,653,-0.0000,0.0000,0.1792,2.4328,-1.0016,0.1792,-4.8656,2.0031,-0.0004,0.0199,-0.0126,-0.0056,1000,1006,1002,1000
6,654,-0.0000,0.0000,0.1780,2.4342,-1.0011,0.1780,-4.8684,2.0022,0.0002,0.0395,0.0148,-0.0398,1000,1006,1002,1000
6,655,-0.0000,0.0000,0.1781,2.4353,-1.0004,0.1781,-4.8705,2.0009,-0.0003,0.0456,0.0256,0.0235,1000,1006,1002,1000
6,656,-0.0000,0.0000,0.1795,2.4343,-0.9992,0.1795,-4.8686,1.9984,-0.0001,-0.0265,0.0375,0.0275,1000,1005,1002,1000
6,657,-0.0000,0.0000,0.1788,2.4349,-0.9996,0.1788,-4.8697,1.9992,-0.0005,0.0126,-0.0293,0.0358,1000,1006,1002,1000
6,658,-0.0000,0.0000,0.1806,2.4352,-0.9992,0.1806,-4.8704,1.9985,0.0004,0.0028,0.0108,0.0055,1000,1006,1002,1000
6,659,-0.0000,0.0000,0.1819,2.4349,-0.9992,0.1819,-4.8698,1.9984,-0.0002,-0.0154,-0.0050,0.0272,1000,1006,1002,1000
6,660,-0.0000,0.0000,0.1804,2.4355,-0.9979,0.1804,-4.8709,1.9958,0.0001,0.0210,0.0206,-0.0155,1000,1005,1002,1000
6,661,-0.0000,0.0000,0.1803,2.4345,-0.9982,0.1803,-4.8690,1.9964,-0.0002,-0.0334,0.0090,0.0196,1000,1005,1002,1000
6,662,-0.0000,0.0000,0.1817,2.4349,-1.0000,0.1817,-4.8699,2.0000,0.0002,-0.0021,-0.0623,0.0247,1000,1006,1002,1000
6,663,-0.0000,0.0000,0.1840,2.4351,-1.0007,0.1840,-4.8703,2.0014,-0.3679,0.0328,-0.0175,0.0244,1385,1394,1390,1382
6,664,-0.0000,0.0000,0.1852,2.4365,-0.9995,0.1852,-4.8731,1.9989,-0.0005,0.0109,0.0234,0.0364,1000,1006,1002,1000
6,665,-0.0000,0.0000,0.1850,2.4372,-0.9999,0.1850,-4.8744,1.9999,0.0001,0.0081,-0.0158,0.0051,1000,1006,1002,1000
6,666,-0.0000,0.0000,0.1844,2.4372,-1.0001,0.1844,-4.8743,2.0002,0.0002,0.0002,0.0021,-0.0139,1000,1006,1002,1000
6,667,-0.0000,0.0000,0.1862,2.4375,-0.9984,0.1862,-4.8751,1.9968,-0.0007,-0.0223,0.0139,0.0562,1000,1006,1002,1000
6,668,-0.0000,0.0000,0.1873,2.4369,-1.0000,0.1873,-4.8737,2.0001,-0.0001,0.0042,-0.0250,0.0209,1000,1006,1002,1000
6,669,-0.0000,0.0000,0.1877,2.4361,-0.9998,0.1877,-4.8722,1.9996,-0.0001,-0.0255,0.0523,0.0081,1000,1005,1002,1000
6,670,-0.0000,0.0000,0.1884,2.4371,-0.9997,0.1884,-4.8743,1.9994,-0.0002,0.0122,0.0222,0.0368,1000,1006,1002,1000
6,671,-0.0000,0.0000,0.1879,2.4361,-1.0001,0.1879,-4.8723,2.0002,-0.0001,-0.0087,-0.0102,-0.0053,1000,1006,1002,1000
6,672,-0.0000,0.0000,0.1893,2.4365,-0.9992,0.1893,-4.8730,1.9985,-0.0003,0.0209,0.0112,0.0128,1000,1006,1002,1000
6,673,-0.0000,0.0000,0.1908,2.4373,-0.9987,0.1908,-4.8745,1.9975,0.0001,0.0064,0.0186,0.0116,1000,1006,1002,1000
6,674,-0.0000,0.0000,0.1903,2.4375,-0.9973,0.1903,-4.8749,1.9947,-0.0003,0.0023,0.0387,-0.0120,1000,1005,1002,1000
6,675,-0.0000,0.0000,0.1915,2.4377,-0.9981,0.1915,-4.8755,1.9962,0.0001,0.0038,-0.0225,0.0263,1000,1006,1002,1000
6,676,-0.0000,0.0000,0.1918,2.4379,-0.9990,0.1918,-4.8758,1.9979,-0.0004,-0.0313,0.0077,0.0171,1000,1005,1002,1000
6,677,-0.0000,0.0000,0.1926,2.4381,-0.9982,0.1926,-4.8762,1.9963,0.0002,0.0059,0.0010,-0.0115,1000,1006,1002,1000
6,678,-0.0000,0.0000,0.1920,2.4401,-0.9981,0.1920,-4.8803,1.9961,-0.0003,0.0157,0.0129,0.0124,1000,1006,1002,1000
6,679,-0.0000,0.0000,0.1920,2.4403,-0.9996,0.1920,-4.8806,1.9991,0.0001,0.0022,-0.0470,0.0040,1000,1006,1002,1000
6,680,-0.0000,0.0000,0.1912,2.4405,-0.9993,0.1912,-4.8810,1.9986,-0.0003,0.0279,0.0328,-0.0091,1000,1006,1002,1000
6,681,-0.0000,0.0000,0.1892,2.4405,-0.9992,0.1892,-4.8811,1.9984,-0.3785,-0.0063,-0.0106,-0.0454,1385,1394,1390,1382
6,682,-0.0000,0.0000,0.1907,2.4403,-1.0000,0.1907,-4.8807,2.0001,-0.0003,0.0254,-0.0191,0.0366,1000,1006,1002,1000
6,683,-0.0000,0.0000,0.1904,2.4415,-0.9993,0.1904,-4.8830,1.9985,-0.0002,0.0101,0.0494,0.0081,1000,1005,1002,1000
6,684,-0.0000,0.0000,0.1920,2.4425,-1.0003,0.1920,-4.8850,2.0006,-0.0005,-0.0052,-0.0082,0.0503,1000,1006,1002,1000
6,685,-0.0000,0.0000,0.1902,2.4409,-1.0002,0.1902,-4.8819,2.0004,0.0014,-0.0568,0.0325,-0.0652,1000,1005,1002,1000
6,686,-0.0000,0.0000,0.1907,2.4417,-1.0010,0.1907,-4.8833,2.0020,-0.0001,0.0163,-0.0255,0.0352,1000,1006,1002,1000
6,687,-0.0000,0.0000,0.1914,2.4429,-0.9999,0.1914,-4.8858,1.9997,-0.3827,0.0228,0.0183,-0.0193,1385,1394,1390,1382
6,688,-0.0000,0.0000,0.1906,2.4436,-0.9989,0.1906,-4.8873,1.9978,0.0001,0.0241,0.0250,-0.0102,1000,1006,1002,1000
6,689,-0.0000,0.0000,0.1907,2.4442,-0.9986,0.1907,-4.8885,1.9972,0.0004,-0.0202,-0.0060,0.0052,1000,1006,1002,1000
6,690,-0.0000,0.0000,0.1918,2.4443,-0.9986,0.1918,-4.8887,1.9971,-0.3836,0.0130,-0.0038,0.0251,1385,1394,1390,1382
6,691,-0.0000,0.0000,0.1936,2.4438,-0.9978,0.1936,-4.8877,1.9956,-0.0005,-0.0327,-0.0144,0.0515,1000,1006,1002,1000
6,692,-0.0000,0.0000,0.1929,2.4435,-0.9977,0.1929,-4.8870,1.9953,0.0008,-0.0031,-0.0092,-0.0625,1000,1005,1002,1000
6,693,-0.0000,0.0000,0.1943,2.4453,-0.9991,0.1943,-4.8905,1.9982,-0.0002,0.0457,-0.0272,0.0305,1000,1006,1002,1000
6,694,-0.0000,0.0000,0.1937,2.4444,-0.9998,0.1937,-4.8888,1.9996,-0.0001,-0.0266,-0.0406,-0.0307,1000,1006,1002,1000
6,695,-0.0000,0.0000,0.1936,2.4445,-1.0001,0.1936,-4.8891,2.0002,0.0008,0.0113,0.0156,-0.0514,1000,1005,1002,1000
6,696,-0.0000,0.0000,0.1946,2.4443,-0.9992,0.1946,-4.8886,1.9984,0.0006,-0.0282,0.0242,0.0204,1000,1005,1002,1000
6,697,-0.0000,0.0000,0.1947,2.4449,-0.9992,0.1947,-4.8898,1.9985,-0.0003,-0.0244,0.0038,0.0220,1000,1006,1002,1000
6,698,-0.0000,0.0000,0.1944,2.4437,-1.0000,0.1944,-4.8875,1.9999,0.0002,-0.0449,-0.0038,-0.0065,1000,1005,1002,1000
6,699,-0.0000,0.0000,0.1935,2.4446,-0.9994,0.1935,-4.8892,1.9989,0.0003,0.0185,-0.0036,-0.0322,1000,1006,1002,1000
6,700,-0.0000,0.0000,0.1943,2.4448,-0.9996,0.1943,-4.8896,1.9993,-0.0002,-0.0137,-0.0306,0.0271,1000,1006,1002,1000
6,701,-0.0000,0.0000,0.1934,2.4450,-0.9996,0.1934,-4.8900,1.9992,0.0004,-0.0028,0.0065,-0.0193,1000,1006,1002,1000
6,702,-0.0000,0.0000,0.1934,2.4447,-1.0005,0.1934,-4.8894,2.0010,0.0002,-0.0274,-0.0559,0.0043,1000,1006,1002,1000
6,703,-0.0000,0.0000,0.1933,2.4470,-0.9995,0.1933,-4.8940,1.9991,-0.0007,0.0506,0.0512,0.0270,1000,1006,1002,1000
6,704,-0.0000,0.0000,0.1928,2.4453,-0.9984,0.1928,-4.8906,1.9969,0.0001,-0.0036,0.0486,-0.0039,1000,1005,1002,1000
6,705,-0.0000,0.0000,0.1921,2.4448,-0.9989,0.1921,-4.8895,1.9978,-0.0005,0.0116,-0.0345,0.0127,1000,1006,1002,1000
6,706,-0.0000,0.0000,0.1916,2.4466,-0.9987,0.1916,-4.8933,1.9974,0.0003,0.0282,0.0248,-0.0202,1000,1006,1002,1000
6,707,-0.0000,0.0000,0.1917,2.4467,-0.9984,0.1917,-4.8933,1.9967,0.0001,-0.0369,0.0137,0.0039,1000,1005,1002,1000
6,708,-0.0000,0.0000,0.1900,2.4461,-0.9972,0.1900,-4.8922,1.9945,0.0002,-0.0767,0.0136,-0.0628,1000,1005,1002,1000
6,709,-0.0000,0.0000,0.1925,2.4464,-0.9960,0.1925,-4.8928,1.9919,-0.0002,-0.0101,0.0014,0.0652,1000,1006,1002,1000
6,710,-0.0000,0.0000,0.1926,2.4454,-0.9963,0.1926,-4.8908,1.9926,-0.0001,-0.0225,-0.0380,-0.0112,1000,1006,1002,1000
6,711,-0.0000,0.0000,0.1919,2.4459,-0.9960,0.1919,-4.8918,1.9920,0.0002,-0.0199,-0.0037,-0.0097,1000,1006,1002,1000
6,712,-0.0000,0.0000,0.1920,2.4457,-0.9956,0.1920,-4.8914,1.9912,-0.0001,0.0221,0.0238,0.0005,1000,1006,1002,1000
6,713,-0.0000,0.0000,0.1929,2.4470,-0.9967,0.1929,-4.8939,1.9933,0.0004,0.0104,-0.0456,0.0104,1000,1006,1002,1000
6,714,-0.0000,0.0000,0.1924,2.4465,-0.9971,0.1924,-4.8930,1.9942,0.0002,-0.0233,-0.0148,-0.0263,1000,1005,1002,1000
6,715,-0.0000,0.0000,0.1944,2.4453,-0.9971,0.1944,-4.8906,1.9942,0.0001,-0.0281,-0.0235,0.0418,1000,1006,1002,1000
6,716,-0.0000,0.0000,0.1954,2.4461,-0.9982,0.1954,-4.8923,1.9964,-0.0003,0.0126,-0.0265,0.0417,1000,1006,1002,1000
6,717,-0.0000,0.0000,0.1978,2.4451,-0.9975,0.1978,-4.8902,1.9951,-0.3957,-0.0343,0.0132,0.0578,1385,1394,1390,1382
6,718,-0.0000,0.0000,0.1966,2.4460,-0.9973,0.1966,-4.8919,1.9947,0.0004,0.0227,-0.0040,-0.0520,1000,1006,1002,1000
6,719,-0.0000,0.0000,0.1956,2.4457,-0.9967,0.1956,-4.8914,1.9935,0.0001,-0.0125,-0.0128,-0.0102,1000,1006,1002,1000
6,720,-0.0000,0.0000,0.1954,2.4465,-0.9971,0.1954,-4.8930,1.9943,-0.0002,0.0074,-0.0260,0.0180,1000,1006,1002,1000
6,721,-0.0000,0.0000,0.1981,2.4455,-0.9979,0.1981,-4.8910,1.9957,0.0002,-0.0822,-0.0222,0.0507,1000,1006,1002,1000
6,722,-0.0000,0.0000,0.1974,2.4454,-0.9971,0.1974,-4.8907,1.9942,0.0002,0.0002,0.0116,-0.0112,1000,1006,1002,1000
6,723,-0.0000,0.0000,0.1967,2.4446,-0.9973,0.1967,-4.8893,1.9946,-0.0001,-0.0352,0.0239,-0.0007,1000,1005,1002,1000
6,724,-0.0000,0.0000,0.1966,2.4445,-0.9969,0.1966,-4.8890,1.9939,-0.0003,-0.0437,0.0039,0.0083,1000,1005,1002,1000
6,725,-0.0000,0.0000,0.1964,2.4455,-0.9970,0.1964,-4.8910,1.9939,-0.0007,0.0388,-0.0024,0.0306,1000,1006,1002,1000
6,726,-0.0000,0.0000,0.1962,2.4478,-0.9977,0.1962,-4.8957,1.9953,0.0002,0.0423,-0.0151,-0.0206,1000,1006,1002,1000
6,727,-0.0000,0.0000,0.1969,2.4486,-0.9983,0.1969,-4.8972,1.9967,-0.0005,0.0091,-0.0088,0.0242,1000,1006,1002,1000
6,728,-0.0000,0.0000,0.1972,2.4490,-0.9984,0.1972,-4.8980,1.9968,-0.0009,-0.0366,-0.0139,0.0362,1000,1006,1002,1000
6,729,-0.0000,0.0000,0.1979,2.4465,-0.9991,0.1979,-4.8931,1.9982,-0.0003,-0.0589,-0.0006,0.0164,1000,1005,1002,1000
6,730,-0.0000,0.0000,0.1981,2.4478,-0.9986,0.1981,-4.8955,1.9972,-0.0004,0.0719,0.0082,0.0106,1000,1006,1002,1000
6,731,-0.0000,0.0000,0.1977,2.4476,-0.9974,0.1977,-4.8953,1.9948,0.0003,-0.0243,0.0104,-0.0154,1000,1005,1002,1000
6,732,-0.0000,0.0000,0.1982,2.4481,-0.9974,0.1982,-4.8961,1.9949,-0.0002,0.0092,-0.0163,0.0162,1000,1006,1002,1000
6,733,-0.0000,0.0000,0.1986,2.4496,-0.9986,0.1986,-4.8992,1.9972,-0.0003,0.0225,0.0073,0.0053,1000,1006,1002,1000
6,734,-0.0000,0.0000,0.1980,2.4514,-0.9984,0.1980,-4.9027,1.9968,-0.0002,0.0421,-0.0025,0.0023,1000,1006,1002,1000
6,735,-0.0000,0.0000,0.1989,2.4491,-0.9980,0.1989,-4.8982,1.9959,0.0001,-0.0542,0.0119,0.0088,1000,1005,1002,1000
6,736,-0.0000,0.0000,0.1998,2.4495,-0.9991,0.1998,-4.8990,1.9982,0.0001,0.0209,-0.0233,0.0256,1000,1006,1002,1000
6,737,-0.0000,0.0000,0.1990,2.4483,-0.9991,0.1990,-4.8965,1.9983,0.0003,-0.0523,-0.0096,-0.0422,1000,1005,1002,1000
6,738,-0.0000,0.0000,0.1989,2.4496,-0.9991,0.1989,-4.8991,1.9982,-0.0002,0.0110,-0.0129,-0.0046,1000,1006,1002,1000
6,739,-0.0000,0.0000,0.2015,2.4497,-0.9996,0.2015,-4.8994,1.9992,0.0001,-0.0374,-0.0163,0.0337,1000,1006,1002,1000
6,740,-0.0000,0.0000,0.2021,2.4489,-0.9996,0.2021,-4.8978,1.9993,0.0003,-0.0194,-0.0056,-0.0326,1000,1005,1002,1000
6,741,-0.0000,0.0000,0.2011,2.4499,-0.9988,0.2011,-4.8998,1.9976,-0.4022,0.0228,0.0226,-0.0412,1385,1394,1390,1382
6,742,-0.0000,0.0000,0.2005,2.4500,-0.9985,0.2005,-4.9000,1.9971,0.0006,0.0036,0.0043,-0.0171,1000,1006,1002,1000
6,743,-0.0000,0.0000,0.2001,2.4496,-0.9982,0.2001,-4.8993,1.9964,0.0006,-0.0252,0.0157,-0.0143,1000,1005,1002,1000
6,744,-0.0000,0.0000,0.2016,2.4490,-0.9981,0.2016,-4.8980,1.9962,-0.0002,0.0066,0.0133,0.0266,1000,1006,1002,1000
6,745,-0.0000,0.0000,0.2016,2.4493,-0.9974,0.2016,-4.8986,1.9948,0.0002,-0.0073,0.0041,0.0107,1000,1006,1002,1000
6,746,-0.0000,0.0000,0.2005,2.4481,-0.9984,0.2005,-4.8962,1.9968,0.0002,-0.0508,0.0117,-0.0062,1000,1005,1002,1000
6,747,-0.0000,0.0000,0.2004,2.4480,-0.9968,0.2004,-4.8960,1.9937,-0.4008,-0.0202,0.0275,-0.0083,1385,1394,1390,1382
6,748,-0.0000,0.0000,0.2006,2.4463,-0.9965,0.2006,-4.8926,1.9929,-0.0003,-0.0635,-0.0235,0.0144,1000,1006,1002,1000
6,749,-0.0000,0.0000,0.2005,2.4468,-0.9967,0.2005,-4.8936,1.9934,0.0001,0.0206,0.0086,0.0169,1000,1006,1002,1000
6,750,-0.0000,0.0000,0.2014,2.4494,-0.9966,0.2014,-4.8988,1.9933,-0.0001,0.0421,0.0160,0.0090,1000,1006,1002,1000
6,751,-0.0000,0.0000,0.2012,2.4492,-0.9958,0.2012,-4.8984,1.9917,-0.0001,-0.0173,0.0118,-0.0064,1000,1005,1002,1000
6,752,-0.0000,0.0000,0.2002,2.4496,-0.9953,0.2002,-4.8993,1.9906,-0.0003,-0.0069,0.0126,-0.0120,1000,1006,1002,1000
6,753,-0.0000,0.0000,0.2019,2.4505,-0.9944,0.2019,-4.9010,1.9889,0.0003,0.0570,0.0190,-0.0017,1000,1006,1002,1000
6,754,-0.0000,0.0000,0.2014,2.4511,-0.9950,0.2014,-4.9022,1.9901,0.0001,-0.0112,-0.0351,0.0012,1000,1006,1002,1000
6,755,-0.0000,0.0000,0.2035,2.4508,-0.9962,0.2035,-4.9016,1.9925,-0.0001,-0.0183,-0.0327,0.0307,1000,1006,1002,1000
6,756,-0.0000,0.0000,0.2034,2.4503,-0.9964,0.2034,-4.9006,1.9928,-0.0008,-0.0267,-0.0187,0.0060,1000,1006,1002,1000
6,757,-0.0000,0.0000,0.2035,2.4501,-0.9992,0.2035,-4.9001,1.9983,-0.0002,-0.0021,-0.0860,-0.0007,1000,1006,1002,1000
6,758,-0.0000,0.0000,0.2050,2.4502,-1.0001,0.2050,-4.9004,2.0002,0.0001,-0.0116,-0.0041,0.0318,1000,1006,1002,1000
6,759,-0.0000,0.0000,0.2051,2.4513,-0.9994,0.2051,-4.9025,1.9988,-0.4103,0.0050,-0.0209,0.0300,1385,1394,1390,1382
6,760,-0.0000,0.0000,0.2038,2.4522,-0.9997,0.2038,-4.9045,1.9994,0.0002,0.0174,0.0075,-0.0208,1000,1006,1002,1000
6,761,-0.0000,0.0000,0.2051,2.4532,-1.0021,0.2051,-4.9063,2.0042,-0.0001,0.0489,-0.0523,0.0035,1000,1006,1002,1000
6,762,-0.0000,0.0000,0.2039,2.4539,-1.0020,0.2039,-4.9078,2.0040,0.0004,0.0374,0.0085,-0.0352,1000,1006,1002,1000
6,763,-0.0000,0.0000,0.2035,2.4531,-1.0013,0.2035,-4.9062,2.0026,0.0002,-0.0301,-0.0329,-0.0196,1000,1006,1002,1000
6,764,-0.0000,0.0000,0.2028,2.4530,-1.0013,0.2028,-4.9061,2.0026,-0.0003,-0.0134,0.0163,0.0002,1000,1006,1002,1000
6,765,-0.0000,0.0000,0.2007,2.4554,-1.0027,0.2007,-4.9107,2.0054,0.0001,0.0611,-0.0391,-0.0425,1000,1006,1002,1000
6,766,-0.0000,0.0000,0.2006,2.4551,-1.0031,0.2006,-4.9103,2.0062,-0.0013,0.0178,-0.0524,0.0412,1000,1006,1002,1000
6,767,-0.0000,0.0000,0.2031,2.4535,-1.0023,0.2031,-4.9069,2.0047,-0.0007,-0.0618,0.0326,0.0628,1000,1006,1002,1000
6,768,-0.0000,0.0000,0.2027,2.4535,-1.0024,0.2027,-4.9071,2.0048,-0.4053,0.0041,-0.0166,-0.0365,1385,1394,1390,1382
6,769,-0.0000,0.0000,0.2002,2.4516,-1.0031,0.2002,-4.9032,2.0062,-0.0003,0.0034,-0.0218,-0.0211,1000,1006,1002,1000
6,770,-0.0000,0.0000,0.2016,2.4534,-1.0035,0.2016,-4.9068,2.0070,0.0002,-0.0033,0.0104,0.0151,1000,1006,1002,1000
6,771,-0.0000,0.0000,0.2011,2.4545,-1.0037,0.2011,-4.9090,2.0075,0.0001,0.0287,-0.0156,0.0230,1000,1006,1002,1000
6,772,-0.0000,0.0000,0.2024,2.4551,-1.0029,0.2024,-4.9102,2.0058,-0.0001,0.0229,0.0245,0.0301,1000,1006,1002,1000
6,773,-0.0000,0.0000,0.2031,2.4554,-1.0031,0.2031,-4.9108,2.0061,0.0004,-0.0172,-0.0238,-0.0061,1000,1006,1002,1000
6,774,-0.0000,0.0000,0.2051,2.4566,-1.0019,0.2051,-4.9132,2.0038,-0.0009,0.0498,0.0443,0.0864,1000,1006,1002,1000
6,775,-0.0000,0.0000,0.2055,2.4554,-1.0009,0.2055,-4.9107,2.0017,0.0009,-0.0132,0.0252,-0.0288,1000,1005,1002,1000
6,776,-0.0000,0.0000,0.2063,2.4557,-0.9997,0.2063,-4.9114,1.9994,-0.0010,0.0172,0.0201,0.0497,1000,1006,1002,1000
6,777,-0.0000,0.0000,0.2079,2.4579,-0.9997,0.2079,-4.9158,1.9994,-0.0003,0.0157,0.0021,0.0364,1000,1006,1002,1000
6,778,-0.0000,0.0000,0.2074,2.4590,-1.0005,0.2074,-4.9179,2.0009,0.0002,0.0238,-0.0473,-0.0067,1000,1006,1002,1000
6,779,-0.0000,0.0000,0.2079,2.4602,-0.9991,0.2079,-4.9205,1.9983,-0.0001,0.0333,0.0321,0.0001,1000,1006,1002,1000
6,780,-0.0000,0.0000,0.2086,2.4616,-1.0004,0.2086,-4.9232,2.0009,-0.0002,0.0072,-0.0402,0.0248,1000,1006,1002,1000
6,781,-0.0000,0.0000,0.2076,2.4619,-1.0008,0.2076,-4.9239,2.0017,0.0006,-0.0022,-0.0447,-0.0255,1000,1006,1002,1000
6,782,-0.0000,0.0000,0.2070,2.4603,-1.0008,0.2070,-4.9206,2.0015,-0.0007,-0.0642,-0.0377,0.0041,1000,1006,1002,1000
6,783,-0.0000,0.0000,0.2088,2.4587,-1.0021,0.2088,-4.9174,2.0041,-0.4176,-0.0373,-0.0090,0.0078,1385,1394,1390,1382
6,784,-0.0000,0.0000,0.2086,2.4589,-1.0008,0.2086,-4.9178,2.0016,-0.0001,-0.0042,-0.0015,-0.0099,1000,1006,1002,1000
6,785,-0.0000,0.0000,0.2077,2.4583,-1.0012,0.2077,-4.9167,2.0024,0.0007,-0.0088,-0.0142,-0.0301,1000,1006,1002,1000
6,786,-0.0000,0.0000,0.2068,2.4583,-1.0028,0.2068,-4.9167,2.0057,0.0008,-0.0040,-0.0512,-0.0532,1000,1006,1002,1000
6,787,-0.0000,0.0000,0.2075,2.4589,-1.0021,0.2075,-4.9177,2.0043,0.0003,-0.0083,0.0147,0.0092,1000,1006,1002,1000
6,788,-0.0000,0.0000,0.2076,2.4572,-1.0023,0.2076,-4.9144,2.0046,-0.0002,-0.0607,-0.0074,0.0033,1000,1006,1002,1000
6,789,-0.0000,0.0000,0.2089,2.4557,-1.0026,0.2089,-4.9113,2.0053,-0.0001,-0.0471,-0.0214,0.0336,1000,1006,1002,1000
6,790,-0.0000,0.0000,0.2097,2.4541,-1.0038,0.2097,-4.9081,2.0075,-0.0001,-0.0239,-0.0095,0.0004,1000,1006,1002,1000
6,791,-0.0000,0.0000,0.2118,2.4541,-1.0044,0.2118,-4.9083,2.0087,-0.0004,-0.0331,-0.0425,0.0552,1000,1006,1002,1000
6,792,-0.0000,0.0000,0.2105,2.4537,-1.0041,0.2105,-4.9073,2.0082,0.0002,-0.0103,-0.0133,-0.0426,1000,1006,1002,1000
6,793,-0.0000,0.0000,0.2122,2.4540,-1.0035,0.2122,-4.9079,2.0070,-0.0003,0.0440,-0.0057,0.0542,1000,1006,1002,1000
6,794,-0.0000,0.0000,0.2126,2.4538,-1.0041,0.2126,-4.9075,2.0082,0.0002,-0.0351,0.0046,0.0148,1000,1006,1002,1000
6,795,-0.0000,0.0000,0.2130,2.4545,-1.0033,0.2130,-4.9090,2.0067,-0.0001,0.0065,0.0053,0.0165,1000,1006,1002,1000
6,796,-0.0000,0.0000,0.2114,2.4536,-1.0025,0.2114,-4.9073,2.0050,0.0002,-0.0205,-0.0204,-0.0385,1000,1006,1002,1000
6,797,-0.0000,0.0000,0.2140,2.4528,-1.0039,0.2140,-4.9056,2.0078,-0.0013,0.0002,-0.0205,0.0851,1000,1006,1002,1000
6,798,-0.0000,0.0000,0.2135,2.4532,-1.0052,0.2135,-4.9063,2.0105,0.0002,0.0079,-0.0116,-0.0147,1000,1006,1002,1000
6,799,-0.0000,0.0000,0.2129,2.4531,-1.0043,0.2129,-4.9062,2.0086,0.0004,-0.0174,-0.0218,-0.0046,1000,1006,1002,1000
6,800,-0.0000,0.0000,0.2139,2.4548,-1.0049,0.2139,-4.9095,2.0097,0.0002,0.0165,0.0143,0.0152,1000,1006,1002,1000
6,801,-0.0000,0.0000,0.2131,2.4542,-1.0061,0.2131,-4.9085,2.0121,-0.4262,-0.0140,-0.0173,-0.0164,1385,1394,1390,1382
6,802,-0.0000,0.0000,0.2137,2.4537,-1.0057,0.2137,-4.9075,2.0114,-0.0004,-0.0331,-0.0041,0.0233,1000,1006,1002,1000
6,803,-0.0000,0.0000,0.2117,2.4558,-1.0043,0.2117,-4.9116,2.0086,0.0002,0.0481,0.0235,-0.0503,1000,1006,1002,1000
6,804,-0.0000,0.0000,0.2115,2.4564,-1.0042,0.2115,-4.9128,2.0084,0.0004,-0.0457,0.0180,-0.0491,1000,1005,1002,1000
6,805,-0.0000,0.0000,0.2098,2.4548,-1.0040,0.2098,-4.9096,2.0080,0.0003,-0.0340,-0.0200,-0.0394,1000,1006,1002,1000
6,806,-0.0000,0.0000,0.2098,2.4547,-1.0042,0.2098,-4.9093,2.0085,-0.0009,-0.0280,-0.0085,0.0228,1000,1006,1002,1000
6,807,-0.0000,0.0000,0.2105,2.4544,-1.0050,0.2105,-4.9088,2.0100,-0.4211,-0.0181,0.0034,-0.0182,1385,1394,1390,1382
6,808,-0.0000,0.0000,0.2120,2.4532,-1.0038,0.2120,-4.9063,2.0075,0.0001,0.0100,0.0006,0.0141,1000,1006,1002,1000
6,809,-0.0000,0.0000,0.2124,2.4519,-1.0034,0.2124,-4.9038,2.0069,-0.0008,-0.0225,-0.0063,0.0347,1000,1006,1002,1000
6,810,-0.0000,0.0000,0.2117,2.4513,-1.0043,0.2117,-4.9026,2.0085,-0.4234,-0.0122,-0.0469,-0.0299,1385,1394,1390,1382
6,811,-0.0000,0.0000,0.2129,2.4521,-1.0047,0.2129,-4.9043,2.0094,0.0009,0.0056,-0.0228,-0.0145,1000,1006,1002,1000
6,812,-0.0000,0.0000,0.2139,2.4521,-1.0041,0.2139,-4.9042,2.0083,0.0002,0.0093,0.0178,0.0027,1000,1006,1002,1000
6,813,-0.0000,0.0000,0.2134,2.4506,-1.0063,0.2134,-4.9011,2.0126,0.0002,0.0072,-0.0836,-0.0306,1000,1006,1002,1000
6,814,-0.0000,0.0000,0.2144,2.4492,-1.0056,0.2144,-4.8984,2.0112,-0.0007,-0.0147,-0.0010,0.0477,1000,1006,1002,1000
6,815,-0.0000,0.0000,0.2157,2.4505,-1.0031,0.2157,-4.9011,2.0063,-0.0004,0.0002,0.0836,0.0148,1000,1005,1002,1000
6,816,-0.0000,0.0000,0.2161,2.4510,-1.0029,0.2161,-4.9021,2.0058,-0.4323,0.0182,-0.0212,-0.0103,1385,1394,1390,1382
6,817,-0.0000,0.0000,0.2174,2.4510,-1.0026,0.2174,-4.9020,2.0053,-0.0003,-0.0179,0.0184,0.0421,1000,1006,1002,1000
6,818,-0.0000,0.0000,0.2166,2.4505,-1.0027,0.2166,-4.9011,2.0053,0.0002,0.0195,-0.0011,-0.0264,1000,1006,1002,1000
6,819,-0.0000,0.0000,0.2161,2.4494,-1.0038,0.2161,-4.8988,2.0076,0.0006,-0.0430,-0.0273,-0.0386,1000,1005,1002,1000
6,820,-0.0000,0.0000,0.2169,2.4492,-1.0035,0.2169,-4.8985,2.0070,-0.0003,-0.0056,-0.0216,0.0187,1000,1006,1002,1000
6,821,-0.0000,0.0000,0.2164,2.4497,-1.0025,0.2164,-4.8994,2.0049,0.0001,0.0333,0.0211,-0.0278,1000,1006,1002,1000
6,822,-0.0000,0.0000,0.2170,2.4510,-1.0018,0.2170,-4.9021,2.0037,0.0003,0.0309,0.0119,-0.0021,1000,1006,1002,1000
6,823,-0.0000,0.0000,0.2178,2.4512,-1.0012,0.2178,-4.9025,2.0024,-0.0005,-0.0133,0.0016,0.0607,1000,1006,1002,1000
6,824,-0.0000,0.0000,0.2172,2.4506,-1.0013,0.2172,-4.9013,2.0026,0.0001,-0.0527,0.0188,-0.0204,1000,1005,1002,1000
6,825,-0.0000,0.0000,0.2167,2.4495,-1.0005,0.2167,-4.8990,2.0010,-0.4334,-0.0394,0.0224,-0.0170,1385,1394,1390,1382
6,826,-0.0000,0.0000,0.2158,2.4494,-0.9993,0.2158,-4.8989,1.9985,0.0007,-0.0307,0.0403,-0.0282,1000,1005,1002,1000
6,827,-0.0000,0.0000,0.2165,2.4482,-0.9992,0.2165,-4.8964,1.9983,0.0006,-0.0128,-0.0157,0.0033,1000,1006,1002,1000
