Version,Time,Roll_Target,Pitch_Target,Yaw_Target,Roll,Pitch,Yaw,Gyro_Roll_Target,Gyro_Pitch_Target,Gyro_Yaw_Target,Gyro_Roll,Gyro_Pitch,Gyro_Yaw,PWM1,PWM2,PWM3,PWM4
6,4472,-0.0000,0.0000,1.3088,2.1193,-0.9523,1.3088,-4.2386,1.9046,0.0001,-0.0498,0.0111,0.0021,1000,1005,1002,1000
6,4473,-0.0000,0.0000,1.3102,2.1184,-0.9506,1.3102,-4.2369,1.9013,-2.6204,-0.0525,0.0237,0.0563,1460,1470,1463,1461
6,4474,-0.0000,0.0000,1.3102,2.1191,-0.9507,1.3102,-4.2381,1.9014,-0.0004,-0.0206,-0.0350,-0.0032,1000,1005,1001,1000
6,4475,-0.0000,0.0000,1.3102,2.1178,-0.9497,1.3102,-4.2357,1.8993,-0.0000,-0.0560,0.0322,-0.0165,1000,1005,1002,1000
6,4476,-0.0000,0.0000,1.3120,2.1159,-0.9489,1.3120,-4.2319,1.8978,-0.0003,-0.0931,0.0221,0.0335,1000,1004,1001,1000
6,4477,-0.0000,0.0000,1.3118,2.1148,-0.9484,1.3118,-4.2296,1.8968,-0.0005,-0.0468,0.0187,0.0309,1000,1005,1001,1000
6,4478,-0.0000,0.0000,1.3106,2.1149,-0.9477,1.3106,-4.2297,1.8954,0.0005,-0.0560,-0.0018,-0.0297,1000,1005,1002,1000
6,4479,-0.0000,0.0000,1.3102,2.1125,-0.9475,1.3102,-4.2249,1.8951,0.0003,-0.0707,0.0016,-0.0237,1000,1004,1001,1000
6,4480,-0.0000,0.0000,1.3116,2.1106,-0.9472,1.3116,-4.2211,1.8944,-0.0009,-0.0571,0.0239,0.0582,1000,1005,1001,1000
6,4481,-0.0000,0.0000,1.3110,2.1105,-0.9481,1.3110,-4.2210,1.8963,0.0003,-0.0714,0.0074,-0.0203,1000,1005,1001,1000
6,4482,-0.0000,0.0000,1.3107,2.1111,-0.9480,1.3107,-4.2222,1.8960,0.0006,-0.0090,0.0050,-0.0203,1000,1004,1001,1000
6,4483,-0.0000,0.0000,1.3117,2.1112,-0.9494,1.3117,-4.2224,1.8987,0.0003,-0.0194,-0.0447,0.0146,1000,1005,1001,1000
6,4484,-0.0000,0.0000,1.3125,2.1126,-0.9504,1.3125,-4.2253,1.9007,0.0005,-0.0025,-0.0242,-0.0038,1000,1005,1002,1000
6,4485,-0.0000,0.0000,1.3119,2.1137,-0.9491,1.3119,-4.2274,1.8983,0.0001,0.0129,0.0332,-0.0133,1000,1004,1001,1000
6,4486,-0.0000,0.0000,1.3109,2.1132,-0.9507,1.3109,-4.2265,1.9014,0.0011,-0.0377,-0.0355,-0.0314,1000,1005,1001,1000
6,4487,-0.0000,0.0000,1.3110,2.1129,-0.9502,1.3110,-4.2257,1.9005,-0.0006,-0.0167,-0.0139,0.0266,1000,1005,1001,1000
6,4488,-0.0000,0.0000,1.3117,2.1145,-0.9500,1.3117,-4.2290,1.9000,-2.6234,-0.0293,-0.0089,0.0225,1460,1471,1463,1461
6,4489,-0.0000,0.0000,1.3127,2.1131,-0.9504,1.3127,-4.2262,1.9008,-0.0000,-0.0742,-0.0185,0.0470,1000,1005,1001,1000
6,4490,-0.0000,0.0000,1.3129,2.1139,-0.9499,1.3129,-4.2278,1.8997,-0.0003,-0.0417,0.0021,0.0029,1000,1005,1001,1000
6,4491,-0.0000,0.0000,1.3146,2.1142,-0.9503,1.3146,-4.2285,1.9005,-0.0009,-0.0345,-0.0079,0.0252,1000,1004,1001,1000
6,4492,-0.0000,0.0000,1.3164,2.1152,-0.9508,1.3164,-4.2304,1.9015,-0.0004,-0.0235,-0.0081,0.0285,1000,1005,1001,1000
6,4493,-0.0000,0.0000,1.3184,2.1159,-0.9516,1.3184,-4.2319,1.9032,-0.0000,-0.0322,0.0031,0.0288,1000,1005,1001,1000
6,4494,-0.0000,0.0000,1.3196,2.1156,-0.9510,1.3196,-4.2311,1.9020,-2.6392,-0.0382,0.0077,0.0322,1460,1471,1463,1461
6,4495,-0.0000,0.0000,1.3195,2.1148,-0.9494,1.3195,-4.2296,1.8988,0.0003,-0.0340,0.0388,-0.0267,1000,1005,1002,1000
6,4496,-0.0000,0.0000,1.3190,2.1162,-0.9505,1.3190,-4.2324,1.9011,-0.0001,-0.0265,-0.0212,0.0090,1000,1005,1001,1000
6,4497,-0.0000,0.0000,1.3187,2.1156,-0.9524,1.3187,-4.2312,1.9048,-2.6374,-0.0768,-0.0505,0.0031,1460,1470,1463,1461
6,4498,-0.0000,0.0000,1.3190,2.1145,-0.9516,1.3190,-4.2289,1.9033,0.0001,-0.0598,0.0201,-0.0022,1000,1005,1002,1000
6,4499,-0.0000,0.0000,1.3204,2.1147,-0.9516,1.3204,-4.2294,1.9032,-0.0003,-0.0341,0.0019,0.0172,1000,1005,1001,1000
6,4500,-0.0000,0.0000,1.3207,2.1146,-0.9512,1.3207,-4.2291,1.9024,-0.0005,-0.0555,0.0286,0.0179,1000,1004,1001,1000
6,4501,-0.0000,0.0000,1.3217,2.1140,-0.9504,1.3217,-4.2279,1.9007,-0.0003,-0.0452,0.0112,0.0235,1000,1005,1001,1000
6,4502,-0.0000,0.0000,1.3226,2.1156,-0.9509,1.3226,-4.2311,1.9018,-0.0006,-0.0084,-0.0287,0.0132,1000,1005,1001,1000
6,4503,-0.0000,0.0000,1.3216,2.1168,-0.9516,1.3216,-4.2336,1.9033,-2.6432,-0.0302,-0.0191,-0.0105,1459,1471,1463,1460
6,4504,-0.0000,0.0000,1.3211,2.1159,-0.9514,1.3211,-4.2319,1.9028,0.0008,-0.0371,0.0239,-0.0557,1000,1005,1002,1000
6,4505,-0.0000,0.0000,1.3205,2.1155,-0.9517,1.3205,-4.2309,1.9035,0.0002,-0.0335,0.0039,-0.0307,1000,1005,1002,1000
6,4506,-0.0000,0.0000,1.3218,2.1140,-0.9532,1.3218,-4.2279,1.9064,-2.6436,-0.0556,-0.0413,0.0208,1460,1471,1463,1461
6,4507,-0.0000,0.0000,1.3208,2.1130,-0.9516,1.3208,-4.2261,1.9033,0.0002,-0.0543,0.0212,-0.0283,1000,1005,1002,1000
6,4508,-0.0000,0.0000,1.3208,2.1145,-0.9513,1.3208,-4.2289,1.9025,0.0005,0.0053,0.0231,-0.0228,1000,1005,1002,1000
6,4509,-0.0000,0.0000,1.3201,2.1143,-0.9521,1.3201,-4.2286,1.9043,0.0003,-0.0550,-0.0459,-0.0329,1000,1004,1001,1000
6,4510,-0.0000,0.0000,1.3203,2.1150,-0.9540,1.3203,-4.2299,1.9079,-0.0000,-0.0171,-0.0493,-0.0014,1000,1005,1001,1000
6,4511,-0.0000,0.0000,1.3202,2.1146,-0.9547,1.3202,-4.2292,1.9094,0.0010,-0.0426,-0.0014,-0.0354,1000,1005,1002,1000
6,4512,-0.0000,0.0000,1.3219,2.1155,-0.9550,1.3219,-4.2309,1.9100,0.0001,-0.0512,-0.0071,0.0269,1000,1004,1001,1000
6,4513,-0.0000,0.0000,1.3222,2.1152,-0.9549,1.3222,-4.2305,1.9098,-0.0003,-0.0552,0.0273,0.0152,1000,1005,1001,1000
6,4514,-0.0000,0.0000,1.3228,2.1159,-0.9535,1.3228,-4.2318,1.9071,-0.0006,-0.0333,0.0302,0.0222,1000,1005,1002,1000
6,4515,-0.0000,0.0000,1.3225,2.1173,-0.9536,1.3225,-4.2346,1.9073,-0.0001,0.0111,-0.0017,-0.0094,1000,1004,1001,1000
6,4516,-0.0000,0.0000,1.3222,2.1184,-0.9542,1.3222,-4.2368,1.9083,-0.0001,-0.0251,0.0006,0.0058,1000,1005,1002,1000
6,4517,-0.0000,0.0000,1.3219,2.1176,-0.9552,1.3219,-4.2352,1.9104,-0.0005,-0.0287,-0.0071,0.0066,1000,1005,1001,1000
6,4518,-0.0000,0.0000,1.3214,2.1170,-0.9546,1.3214,-4.2339,1.9091,0.0002,-0.0813,0.0025,0.0058,1000,1004,1001,1000
6,4519,-0.0000,0.0000,1.3211,2.1174,-0.9546,1.3211,-4.2348,1.9092,0.0001,-0.0619,0.0306,0.0126,1000,1005,1001,1000
6,4520,-0.0000,0.0000,1.3210,2.1167,-0.9539,1.3210,-4.2334,1.9078,0.0002,-0.0408,0.0141,0.0090,1000,1005,1002,1000
6,4521,-0.0000,0.0000,1.3215,2.1166,-0.9520,1.3215,-4.2332,1.9039,0.0006,-0.0498,0.0430,-0.0276,1000,1004,1001,1000
6,4522,-0.0000,0.0000,1.3221,2.1157,-0.9517,1.3221,-4.2313,1.9034,-0.0005,-0.0063,-0.0175,0.0181,1000,1005,1002,1000
6,4523,-0.0000,0.0000,1.3211,2.1153,-0.9528,1.3211,-4.2305,1.9057,-0.0001,-0.0764,-0.0354,-0.0095,1000,1005,1001,1000
6,4524,-0.0000,0.0000,1.3211,2.1149,-0.9527,1.3211,-4.2298,1.9054,0.0003,-0.0460,-0.0035,-0.0069,1000,1004,1001,1000
6,4525,-0.0000,0.0000,1.3219,2.1145,-0.9533,1.3219,-4.2289,1.9067,0.0001,-0.0412,-0.0031,0.0143,1000,1005,1001,1000
6,4526,-0.0000,0.0000,1.3210,2.1140,-0.9534,1.3210,-4.2281,1.9068,-0.0006,-0.0972,0.0025,0.0029,1000,1005,1001,1000
6,4527,-0.0000,0.0000,1.3214,2.1137,-0.9539,1.3214,-4.2273,1.9078,0.0001,-0.0912,-0.0515,0.0103,1000,1004,1001,1000
6,4528,-0.0000,0.0000,1.3205,2.1148,-0.9543,1.3205,-4.2297,1.9085,-0.0004,0.0082,-0.0145,0.0123,1000,1005,1002,1000
6,4529,-0.0000,0.0000,1.3225,2.1152,-0.9536,1.3225,-4.2304,1.9072,0.0005,-0.0232,0.0226,0.0200,1000,1005,1002,1000
6,4530,-0.0000,0.0000,1.3232,2.1170,-0.9527,1.3232,-4.2340,1.9055,0.0010,-0.0155,0.0033,-0.0310,1000,1004,1001,1000
6,4531,-0.0000,0.0000,1.3237,2.1156,-0.9518,1.3237,-4.2312,1.9037,-0.0008,-0.0483,0.0183,0.0444,1000,1005,1001,1000
6,4532,-0.0000,0.0000,1.3250,2.1149,-0.9540,1.3250,-4.2299,1.9081,0.0002,-0.0411,-0.0395,-0.0054,1000,1005,1001,1000
6,4533,-0.0000,0.0000,1.3239,2.1152,-0.9533,1.3239,-4.2305,1.9066,0.0003,-0.0332,0.0384,-0.0563,1000,1004,1001,1000
6,4534,-0.0000,0.0000,1.3227,2.1161,-0.9541,1.3227,-4.2323,1.9083,0.0002,-0.0156,-0.0278,-0.0437,1000,1005,1002,1000
6,4535,-0.0000,0.0000,1.3231,2.1171,-0.9540,1.3231,-4.2342,1.9079,0.0001,-0.0209,0.0042,-0.0025,1000,1005,1002,1000
6,4536,-0.0000,0.0000,1.3241,2.1176,-0.9537,1.3241,-4.2352,1.9074,-0.0000,-0.0716,0.0089,-0.0033,1000,1004,1001,1000
6,4537,-0.0000,0.0000,1.3247,2.1177,-0.9536,1.3247,-4.2353,1.9073,0.0008,-0.0654,-0.0158,-0.0195,1000,1005,1001,1000
6,4538,-0.0000,0.0000,1.3256,2.1161,-0.9553,1.3256,-4.2323,1.9107,-0.0001,-0.0738,-0.0688,0.0493,1000,1005,1001,1000
6,4539,-0.0000,0.0000,1.3257,2.1158,-0.9560,1.3257,-4.2317,1.9120,-0.0003,-0.0715,-0.0088,0.0269,1000,1004,1001,1000
6,4540,-0.0000,0.0000,1.3243,2.1155,-0.9557,1.3243,-4.2310,1.9113,0.0005,-0.0482,-0.0081,-0.0372,1000,1005,1002,1000
6,4541,-0.0000,0.0000,1.3248,2.1140,-0.9566,1.3248,-4.2279,1.9133,0.0002,-0.0856,-0.0274,-0.0123,1000,1005,1001,1000
6,4542,-0.0000,0.0000,1.3260,2.1135,-0.9571,1.3260,-4.2271,1.9143,-2.6519,-0.0585,-0.0236,0.0493,1460,1471,1463,1461
6,4543,-0.0000,0.0000,1.3288,2.1157,-0.9587,1.3288,-4.2314,1.9174,-0.0005,-0.0010,-0.0417,0.0439,1000,1005,1001,1000
6,4544,-0.0000,0.0000,1.3296,2.1153,-0.9593,1.3296,-4.2306,1.9187,0.0001,-0.0283,-0.0203,0.0142,1000,1005,1001,1000
6,4545,-0.0000,0.0000,1.3329,2.1159,-0.9593,1.3329,-4.2317,1.9185,0.0001,-0.0180,0.0171,0.0260,1000,1004,1001,1000
6,4546,-0.0000,0.0000,1.3340,2.1173,-0.9604,1.3340,-4.2346,1.9208,0.0002,-0.0314,0.0050,0.0071,1000,1005,1001,1000
6,4547,-0.0000,0.0000,1.3357,2.1175,-0.9596,1.3357,-4.2349,1.9192,-0.0004,-0.0423,0.0271,0.0657,1000,1005,1001,1000
6,4548,-0.0000,0.0000,1.3352,2.1179,-0.9597,1.3352,-4.2358,1.9193,0.0005,-0.0299,0.0344,-0.0296,1000,1004,1001,1000
6,4549,-0.0000,0.0000,1.3353,2.1173,-0.9585,1.3353,-4.2346,1.9170,-0.0005,-0.0702,0.0289,0.0156,1000,1005,1001,1000
6,4550,-0.0000,0.0000,1.3347,2.1174,-0.9586,1.3347,-4.2348,1.9172,0.0008,-0.0142,-0.0040,-0.0583,1000,1005,1002,1000
6,4551,-0.0000,0.0000,1.3354,2.1170,-0.9566,1.3354,-4.2340,1.9132,0.0007,-0.0678,0.0641,-0.0033,1000,1004,1001,1000
6,4552,-0.0000,0.0000,1.3349,2.1168,-0.9555,1.3349,-4.2336,1.9109,-0.0000,-0.0291,0.0436,-0.0289,1000,1005,1002,1000
6,4553,-0.0000,0.0000,1.3337,2.1174,-0.9548,1.3337,-4.2348,1.9096,0.0012,-0.0258,0.0488,-0.0543,1000,1005,1002,1000
6,4554,-0.0000,0.0000,1.3339,2.1183,-0.9552,1.3339,-4.2367,1.9104,-0.0006,-0.0139,0.0104,0.0119,1000,1004,1001,1000
6,4555,-0.0000,0.0000,1.3356,2.1173,-0.9553,1.3356,-4.2345,1.9105,-0.0004,-0.0690,-0.0138,0.0423,1000,1005,1001,1000
6,4556,-0.0000,0.0000,1.3363,2.1186,-0.9550,1.3363,-4.2372,1.9101,0.0002,-0.0099,0.0254,-0.0102,1000,1005,1002,1000
6,4557,-0.0000,0.0000,1.3368,2.1173,-0.9541,1.3368,-4.2347,1.9083,-2.6735,-0.0266,0.0467,0.0040,1459,1470,1463,1461
6,4558,-0.0000,0.0000,1.3355,2.1184,-0.9549,1.3355,-4.2367,1.9099,0.0003,-0.0047,-0.0369,-0.0370,1000,1005,1002,1000
6,4559,-0.0000,0.0000,1.3360,2.1193,-0.9546,1.3360,-4.2387,1.9091,-0.0004,-0.0076,0.0086,0.0302,1000,1005,1002,1000
6,4560,-0.0000,0.0000,1.3353,2.1194,-0.9537,1.3353,-4.2388,1.9075,-2.6706,-0.0367,0.0122,-0.0169,1460,1471,1463,1461
6,4561,-0.0000,0.0000,1.3348,2.1194,-0.9553,1.3348,-4.2388,1.9105,-0.0000,-0.0486,-0.0262,-0.0150,1000,1005,1001,1000
6,4562,-0.0000,0.0000,1.3335,2.1211,-0.9553,1.3335,-4.2421,1.9105,-0.0010,-0.0036,-0.0226,-0.0008,1000,1005,1002,1000
6,4563,-0.0000,0.0000,1.3354,2.1220,-0.9541,1.3354,-4.2441,1.9082,-0.0004,-0.0394,0.0578,0.0382,1000,1004,1001,1000
6,4564,-0.0000,0.0000,1.3356,2.1242,-0.9539,1.3356,-4.2484,1.9078,-0.0005,-0.0049,0.0235,0.0177,1000,1005,1002,1000
6,4565,-0.0000,0.0000,1.3374,2.1240,-0.9552,1.3374,-4.2481,1.9105,-0.0003,-0.0478,-0.0449,0.0186,1000,1005,1001,1000
6,4566,-0.0000,0.0000,1.3381,2.1228,-0.9550,1.3381,-4.2455,1.9100,-0.0001,-0.1010,-0.0112,-0.0015,1000,1004,1001,1000
6,4567,-0.0000,0.0000,1.3381,2.1224,-0.9547,1.3381,-4.2448,1.9093,0.0002,-0.0221,0.0247,-0.0079,1000,1005,1002,1000
6,4568,-0.0000,0.0000,1.3400,2.1223,-0.9535,1.3400,-4.2447,1.9069,0.0002,-0.0556,0.0459,0.0218,1000,1005,1002,1000
6,4569,-0.0000,0.0000,1.3407,2.1239,-0.9536,1.3407,-4.2478,1.9073,-2.6814,0.0289,0.0095,0.0246,1459,1471,1463,1461
6,4570,-0.0000,0.0000,1.3426,2.1235,-0.9536,1.3426,-4.2470,1.9071,0.0003,-0.0778,-0.0121,0.0459,1000,1005,1001,1000
6,4571,-0.0000,0.0000,1.3433,2.1235,-0.9539,1.3433,-4.2470,1.9079,-0.0000,-0.0567,-0.0072,0.0198,1000,1005,1001,1000
6,4572,-0.0000,0.0000,1.3429,2.1244,-0.9545,1.3429,-4.2489,1.9090,-0.0001,-0.0112,-0.0150,0.0086,1000,1004,1001,1000
6,4573,-0.0000,0.0000,1.3437,2.1239,-0.9544,1.3437,-4.2478,1.9087,-0.0003,-0.0536,0.0051,0.0365,1000,1005,1001,1000
6,4574,-0.0000,0.0000,1.3439,2.1257,-0.9551,1.3439,-4.2513,1.9103,-0.0000,-0.0181,-0.0077,-0.0151,1000,1005,1002,1000
6,4575,-0.0000,0.0000,1.3462,2.1258,-0.9550,1.3462,-4.2516,1.9101,-2.6925,-0.0323,-0.0087,0.0755,1459,1471,1463,1461
6,4576,-0.0000,0.0000,1.3486,2.1252,-0.9561,1.3486,-4.2503,1.9122,0.0005,-0.0469,0.0020,0.0216,1000,1005,1001,1000
6,4577,-0.0000,0.0000,1.3500,2.1253,-0.9576,1.3500,-4.2507,1.9151,-0.0000,-0.0094,-0.0276,0.0114,1000,1005,1002,1000
6,4578,-0.0000,0.0000,1.3506,2.1258,-0.9570,1.3506,-4.2515,1.9141,-0.0001,-0.0506,-0.0078,0.0188,1000,1004,1001,1000
6,4579,-0.0000,0.0000,1.3508,2.1255,-0.9567,1.3508,-4.2510,1.9133,-0.0004,-0.0189,0.0092,0.0117,1000,1005,1002,1000
6,4580,-0.0000,0.0000,1.3530,2.1255,-0.9584,1.3530,-4.2510,1.9167,-0.0005,-0.0201,-0.0391,0.0560,1000,1005,1001,1000
6,4581,-0.0000,0.0000,1.3530,2.1221,-0.9580,1.3530,-4.2442,1.9161,-0.0000,-0.1157,0.0380,0.0357,1000,1004,1001,1000
6,4582,-0.0000,0.0000,1.3516,2.1220,-0.9570,1.3516,-4.2440,1.9139,0.0001,-0.0075,0.0036,-0.0412,1000,1005,1002,1000
6,4583,-0.0000,0.0000,1.3520,2.1214,-0.9579,1.3520,-4.2427,1.9158,0.0002,-0.0338,-0.0220,-0.0137,1000,1005,1001,1000
6,4584,-0.0000,0.0000,1.3528,2.1224,-0.9584,1.3528,-4.2448,1.9169,-2.7057,0.0146,-0.0206,0.0558,1459,1471,1463,1461
6,4585,-0.0000,0.0000,1.3522,2.1228,-0.9579,1.3522,-4.2456,1.9158,-0.0001,-0.0581,-0.0040,0.0107,1000,1005,1001,1000
6,4586,-0.0000,0.0000,1.3525,2.1244,-0.9578,1.3525,-4.2487,1.9156,0.0002,-0.0105,0.0177,0.0199,1000,1005,1002,1000
6,4587,-0.0000,0.0000,1.3502,2.1251,-0.9568,1.3502,-4.2503,1.9137,0.0011,-0.0137,0.0233,-0.0631,1000,1005,1002,1000
6,4588,-0.0000,0.0000,1.3505,2.1255,-0.9563,1.3505,-4.2511,1.9125,-0.0001,-0.0058,0.0161,-0.0060,1000,1005,1002,1000
6,4589,-0.0000,0.0000,1.3506,2.1252,-0.9564,1.3506,-4.2504,1.9129,-0.0001,-0.0615,-0.0046,-0.0076,1000,1005,1001,1000
6,4590,-0.0000,0.0000,1.3514,2.1257,-0.9586,1.3514,-4.2514,1.9171,0.0003,-0.0306,-0.0776,-0.0061,1000,1004,1001,1000
6,4591,-0.0000,0.0000,1.3511,2.1260,-0.9576,1.3511,-4.2520,1.9153,0.0001,0.0118,0.0425,-0.0230,1000,1005,1002,1000
6,4592,-0.0000,0.0000,1.3527,2.1269,-0.9561,1.3527,-4.2539,1.9122,-0.0014,-0.0135,0.0534,0.0984,1000,1005,1002,1000
6,4593,-0.0000,0.0000,1.3528,2.1268,-0.9553,1.3528,-4.2536,1.9107,0.0001,-0.0535,0.0243,0.0055,1000,1005,1002,1000
6,4594,-0.0000,0.0000,1.3520,2.1245,-0.9551,1.3520,-4.2491,1.9102,0.0005,-0.1005,0.0050,-0.0548,1000,1005,1002,1000
6,4595,-0.0000,0.0000,1.3511,2.1245,-0.9551,1.3511,-4.2490,1.9101,0.0003,-0.0533,0.0092,-0.0410,1000,1004,1001,1000
6,4596,-0.0000,0.0000,1.3519,2.1245,-0.9529,1.3519,-4.2490,1.9058,0.0012,-0.0675,0.0395,-0.0188,1000,1004,1001,1000
6,4597,-0.0000,0.0000,1.3506,2.1235,-0.9518,1.3506,-4.2469,1.9037,0.0001,-0.0850,0.0263,-0.0136,1000,1005,1002,1000
6,4598,-0.0000,0.0000,1.3507,2.1221,-0.9497,1.3507,-4.2442,1.8995,-0.0003,-0.0576,0.0353,0.0018,1000,1005,1002,1000
6,4599,-0.0000,0.0000,1.3526,2.1228,-0.9512,1.3526,-4.2457,1.9025,-2.7052,-0.0217,-0.0263,0.0676,1459,1471,1463,1461
6,4600,-0.0000,0.0000,1.3533,2.1230,-0.9510,1.3533,-4.2461,1.9020,0.0011,-0.0371,-0.0169,-0.0321,1000,1005,1002,1000
6,4601,-0.0000,0.0000,1.3549,2.1244,-0.9519,1.3549,-4.2489,1.9039,0.0005,0.0128,-0.0025,0.0066,1000,1005,1002,1000
6,4602,-0.0000,0.0000,1.3552,2.1238,-0.9517,1.3552,-4.2476,1.9033,-0.0000,-0.0666,0.0063,0.0181,1000,1004,1001,1000
6,4603,-0.0000,0.0000,1.3579,2.1235,-0.9522,1.3579,-4.2471,1.9044,-0.0010,-0.0506,0.0153,0.0833,1000,1005,1001,1000
6,4604,-0.0000,0.0000,1.3609,2.1225,-0.9523,1.3609,-4.2450,1.9045,-0.0001,-0.0630,-0.0015,0.0779,1000,1005,1001,1000
6,4605,-0.0000,0.0000,1.3624,2.1229,-0.9524,1.3624,-4.2458,1.9048,-0.0000,-0.0415,0.0355,0.0131,1000,1004,1001,1000
6,4606,-0.0000,0.0000,1.3633,2.1231,-0.9521,1.3633,-4.2462,1.9042,-0.0005,-0.0221,-0.0152,0.0356,1000,1005,1001,1000
6,4607,-0.0000,0.0000,1.3636,2.1231,-0.9528,1.3636,-4.2462,1.9057,-0.0000,0.0006,-0.0228,-0.0182,1000,1005,1002,1000
6,4608,-0.0000,0.0000,1.3638,2.1239,-0.9540,1.3638,-4.2478,1.9079,-2.7277,-0.0125,-0.0347,0.0080,1459,1471,1463,1461
6,4609,-0.0000,0.0000,1.3646,2.1249,-0.9544,1.3646,-4.2497,1.9088,0.0001,-0.0223,0.0051,0.0058,1000,1005,1002,1000
6,4610,-0.0000,0.0000,1.3641,2.1242,-0.9539,1.3641,-4.2483,1.9078,-0.0000,-0.0858,-0.0035,-0.0206,1000,1005,1001,1000
6,4611,-0.0000,0.0000,1.3634,2.1242,-0.9541,1.3634,-4.2484,1.9082,-2.7268,-0.0153,-0.0125,-0.0173,1459,1471,1463,1460
6,4612,-0.0000,0.0000,1.3634,2.1249,-0.9536,1.3634,-4.2498,1.9072,-0.0004,-0.0283,0.0049,-0.0062,1000,1004,1001,1000
6,4613,-0.0000,0.0000,1.3619,2.1255,-0.9529,1.3619,-4.2511,1.9058,0.0006,0.0166,0.0186,-0.0497,1000,1005,1002,1000
6,4614,-0.0000,0.0000,1.3621,2.1264,-0.9526,1.3621,-4.2528,1.9052,0.0001,-0.0196,-0.0174,-0.0183,1000,1004,1001,1000
6,4615,-0.0000,0.0000,1.3634,2.1266,-0.9529,1.3634,-4.2531,1.9057,0.0001,-0.0312,-0.0107,0.0358,1000,1005,1001,1000
6,4616,-0.0000,0.0000,1.3617,2.1256,-0.9532,1.3617,-4.2512,1.9065,0.0002,-0.0498,0.0031,-0.0269,1000,1005,1002,1000
6,4617,-0.0000,0.0000,1.3619,2.1253,-0.9512,1.3619,-4.2506,1.9023,0.0001,-0.0727,0.0585,0.0102,1000,1004,1001,1000
6,4618,-0.0000,0.0000,1.3603,2.1262,-0.9506,1.3603,-4.2525,1.9012,0.0010,-0.0063,-0.0011,-0.0818,1000,1005,1002,1000
6,4619,-0.0000,0.0000,1.3600,2.1259,-0.9510,1.3600,-4.2517,1.9019,-0.0003,-0.0697,-0.0475,0.0160,1000,1005,1001,1000
6,4620,-0.0000,0.0000,1.3599,2.1258,-0.9517,1.3599,-4.2516,1.9033,-2.7198,-0.0378,-0.0078,0.0130,1459,1471,1463,1460
6,4621,-0.0000,0.0000,1.3598,2.1278,-0.9526,1.3598,-4.2555,1.9052,0.0005,0.0116,-0.0383,-0.0183,1000,1005,1002,1000
6,4622,-0.0000,0.0000,1.3609,2.1291,-0.9532,1.3609,-4.2583,1.9063,-0.0000,0.0013,-0.0044,0.0172,1000,1005,1002,1000
6,4623,-0.0000,0.0000,1.3606,2.1290,-0.9527,1.3606,-4.2581,1.9054,0.0005,-0.0238,0.0374,-0.0141,1000,1004,1001,1000
6,4624,-0.0000,0.0000,1.3615,2.1299,-0.9515,1.3615,-4.2599,1.9031,-0.0000,-0.0433,0.0288,0.0237,1000,1005,1002,1000
6,4625,-0.0000,0.0000,1.3605,2.1318,-0.9523,1.3605,-4.2636,1.9046,-0.0003,0.0325,-0.0105,-0.0092,1000,1005,1002,1000
6,4626,-0.0000,0.0000,1.3597,2.1329,-0.9519,1.3597,-4.2659,1.9038,-2.7194,-0.0277,-0.0166,-0.0298,1459,1471,1463,1460
6,4627,-0.0000,0.0000,1.3599,2.1341,-0.9521,1.3599,-4.2681,1.9042,0.0006,-0.0029,-0.0339,-0.0055,1000,1005,1002,1000
6,4628,-0.0000,0.0000,1.3607,2.1336,-0.9532,1.3607,-4.2673,1.9063,0.0002,-0.0168,-0.0033,0.0079,1000,1005,1002,1000
6,4629,-0.0000,0.0000,1.3621,2.1342,-0.9541,1.3621,-4.2683,1.9082,-0.0008,-0.0225,-0.0119,0.0435,1000,1004,1001,1000
6,4630,-0.0000,0.0000,1.3613,2.1361,-0.9538,1.3613,-4.2721,1.9076,-0.0004,0.0197,-0.0189,-0.0104,1000,1005,1002,1000
6,4631,-0.0000,0.0000,1.3611,2.1354,-0.9537,1.3611,-4.2708,1.9074,-0.0003,-0.0728,-0.0170,-0.0058,1000,1005,1001,1000
6,4632,-0.0000,0.0000,1.3613,2.1356,-0.9518,1.3613,-4.2712,1.9036,0.0002,-0.0357,0.0561,-0.0216,1000,1004,1001,1000
6,4633,-0.0000,0.0000,1.3621,2.1352,-0.9511,1.3621,-4.2703,1.9022,-0.0005,-0.0416,0.0083,0.0350,1000,1005,1002,1000
6,4634,-0.0000,0.0000,1.3637,2.1362,-0.9514,1.3637,-4.2724,1.9027,-0.0003,-0.0155,0.0104,0.0343,1000,1005,1002,1000
6,4635,-0.0000,0.0000,1.3633,2.1364,-0.9518,1.3633,-4.2727,1.9036,-2.7266,-0.0189,0.0124,0.0166,1459,1471,1463,1461
6,4636,-0.0000,0.0000,1.3647,2.1363,-0.9521,1.3647,-4.2727,1.9041,-0.0010,-0.0545,0.0021,0.0520,1000,1005,1001,1000
6,4637,-0.0000,0.0000,1.3643,2.1390,-0.9518,1.3643,-4.2781,1.9036,-0.0003,-0.0123,0.0099,-0.0031,1000,1005,1002,1000
6,4638,-0.0000,0.0000,1.3664,2.1392,-0.9504,1.3664,-4.2785,1.9009,-0.0001,-0.0164,0.0226,0.0270,1000,1004,1001,1000
6,4639,-0.0000,0.0000,1.3665,2.1391,-0.9505,1.3665,-4.2781,1.9010,0.0002,-0.0739,-0.0171,-0.0207,1000,1005,1002,1000
6,4640,-0.0000,0.0000,1.3658,2.1394,-0.9502,1.3658,-4.2788,1.9003,-0.0006,-0.0347,0.0036,0.0018,1000,1005,1002,1000
6,4641,-0.0000,0.0000,1.3657,2.1404,-0.9503,1.3657,-4.2808,1.9006,-2.7314,-0.0005,-0.0045,-0.0653,1459,1471,1463,1460
6,4642,-0.0000,0.0000,1.3649,2.1420,-0.9487,1.3649,-4.2840,1.8974,-0.0009,-0.0031,0.0178,0.0179,1000,1005,1002,1000
6,4643,-0.0000,0.0000,1.3653,2.1432,-0.9496,1.3653,-4.2865,1.8992,-0.0004,-0.0137,0.0011,0.0226,1000,1005,1002,1000
6,4644,-0.0000,0.0000,1.3669,2.1446,-0.9494,1.3669,-4.2893,1.8988,-2.7338,-0.0026,0.0281,0.0482,1459,1471,1463,1461
6,4645,-0.0000,0.0000,1.3668,2.1442,-0.9487,1.3668,-4.2885,1.8975,-0.0006,-0.0252,0.0234,0.0253,1000,1005,1002,1000
6,4646,-0.0000,0.0000,1.3676,2.1441,-0.9484,1.3676,-4.2883,1.8968,0.0001,-0.0738,0.0075,0.0065,1000,1005,1002,1000
6,4647,-0.0000,0.0000,1.3690,2.1446,-0.9487,1.3690,-4.2891,1.8975,-2.7381,-0.0383,-0.0115,0.0524,1459,1471,1463,1460
6,4648,-0.0000,0.0000,1.3705,2.1452,-0.9487,1.3705,-4.2904,1.8974,-0.0001,-0.0371,-0.0109,0.0306,1000,1005,1002,1000
6,4649,-0.0000,0.0000,1.3708,2.1462,-0.9484,1.3708,-4.2924,1.8968,0.0006,0.0096,0.0334,-0.0210,1000,1005,1002,1000
6,4650,-0.0000,0.0000,1.3709,2.1451,-0.9483,1.3709,-4.2902,1.8965,-0.0004,-0.0613,0.0269,0.0185,1000,1004,1001,1000
6,4651,-0.0000,0.0000,1.3730,2.1474,-0.9477,1.3730,-4.2949,1.8953,-0.0003,0.0118,0.0011,0.0705,1000,1005,1002,1000
6,4652,-0.0000,0.0000,1.3736,2.1480,-0.9481,1.3736,-4.2959,1.8962,-0.0003,-0.0248,-0.0049,0.0203,1000,1005,1002,1000
6,4653,-0.0000,0.0000,1.3740,2.1487,-0.9490,1.3740,-4.2973,1.8979,0.0006,-0.0381,-0.0242,-0.0244,1000,1004,1001,1000
6,4654,-0.0000,0.0000,1.3753,2.1494,-0.9507,1.3753,-4.2989,1.9014,-0.0006,-0.0031,-0.0292,0.0394,1000,1005,1002,1000
6,4655,-0.0000,0.0000,1.3753,2.1508,-0.9498,1.3753,-4.3015,1.8996,-0.0005,-0.0151,0.0177,-0.0109,1000,1005,1002,1000
6,4656,-0.0000,0.0000,1.3777,2.1503,-0.9511,1.3777,-4.3006,1.9023,-0.0011,-0.0860,-0.0408,0.0749,1000,1004,1001,1000
6,4657,-0.0000,0.0000,1.3784,2.1521,-0.9496,1.3784,-4.3042,1.8992,-0.0003,-0.0158,0.0458,0.0245,1000,1005,1002,1000
6,4658,-0.0000,0.0000,1.3799,2.1537,-0.9492,1.3799,-4.3074,1.8983,-0.0003,0.0129,0.0118,0.0429,1000,1005,1002,1000
6,4659,-0.0000,0.0000,1.3810,2.1541,-0.9491,1.3810,-4.3082,1.8982,-0.0008,-0.0137,0.0278,0.0443,1000,1004,1001,1000
6,4660,-0.0000,0.0000,1.3827,2.1527,-0.9484,1.3827,-4.3054,1.8969,-0.0004,-0.0752,0.0120,0.0361,1000,1005,1002,1000
6,4661,-0.0000,0.0000,1.3819,2.1536,-0.9481,1.3819,-4.3071,1.8961,0.0003,0.0216,-0.0222,-0.0267,1000,1005,1002,1000
6,4662,-0.0000,0.0000,1.3836,2.1534,-0.9480,1.3836,-4.3069,1.8959,-2.7672,-0.0210,0.0308,0.0280,1459,1471,1463,1460
6,4663,-0.0000,0.0000,1.3830,2.1548,-0.9486,1.3830,-4.3096,1.8971,-0.0004,-0.0337,-0.0030,0.0066,1000,1005,1002,1000
6,4664,-0.0000,0.0000,1.3844,2.1566,-0.9500,1.3844,-4.3132,1.9000,0.0001,0.0166,-0.0116,0.0064,1000,1005,1002,1000
6,4665,-0.0000,0.0000,1.3859,2.1580,-0.9495,1.3859,-4.3161,1.8990,-2.7718,0.0299,0.0077,0.0296,1459,1471,1463,1461
6,4666,-0.0000,0.0000,1.3843,2.1586,-0.9488,1.3843,-4.3171,1.8975,0.0006,-0.0233,0.0015,-0.0163,1000,1005,1002,1000
6,4667,-0.0000,0.0000,1.3846,2.1595,-0.9485,1.3846,-4.3190,1.8970,-0.0006,-0.0524,-0.0097,0.0470,1000,1005,1002,1000
6,4668,-0.0000,0.0000,1.3844,2.1608,-0.9474,1.3844,-4.3215,1.8949,-0.0000,-0.0103,0.0270,-0.0068,1000,1005,1002,1000
6,4669,-0.0000,0.0000,1.3854,2.1619,-0.9472,1.3854,-4.3238,1.8944,-0.0003,-0.0238,-0.0077,0.0305,1000,1005,1002,1000
6,4670,-0.0000,0.0000,1.3858,2.1606,-0.9465,1.3858,-4.3212,1.8929,-0.0003,-0.0599,-0.0011,0.0170,1000,1005,1002,1000
6,4671,-0.0000,0.0000,1.3873,2.1606,-0.9459,1.3873,-4.3212,1.8919,-2.7745,-0.0318,0.0100,0.0517,1459,1471,1463,1461
6,4672,-0.0000,0.0000,1.3872,2.1617,-0.9455,1.3872,-4.3234,1.8909,-0.0009,0.0110,0.0063,0.0303,1000,1005,1002,1000
6,4673,-0.0000,0.0000,1.3879,2.1614,-0.9450,1.3879,-4.3229,1.8899,-0.0001,-0.0433,0.0112,0.0121,1000,1005,1002,1000
6,4674,-0.0000,0.0000,1.3898,2.1621,-0.9457,1.3898,-4.3243,1.8914,0.0008,-0.0211,-0.0535,-0.0039,1000,1004,1001,1000
6,4675,-0.0000,0.0000,1.3907,2.1633,-0.9448,1.3907,-4.3266,1.8897,-0.0006,-0.0035,0.0209,0.0431,1000,1005,1002,1000
6,4676,-0.0000,0.0000,1.3901,2.1642,-0.9428,1.3901,-4.3284,1.8856,0.0002,-0.0029,0.0652,0.0173,1000,1005,1002,1000
6,4677,-0.0000,0.0000,1.3925,2.1657,-0.9436,1.3925,-4.3313,1.8872,-0.0005,0.0094,-0.0160,0.0595,1000,1005,1001,1000
6,4678,-0.0000,0.0000,1.3939,2.1656,-0.9434,1.3939,-4.3312,1.8868,-0.0006,-0.0383,0.0174,0.0493,1000,1005,1002,1000
6,4679,-0.0000,0.0000,1.3948,2.1666,-0.9429,1.3948,-4.3333,1.8857,-0.0005,-0.0678,-0.0052,0.0284,1000,1005,1002,1000
6,4680,-0.0000,0.0000,1.3973,2.1664,-0.9429,1.3973,-4.3327,1.8858,-2.7947,-0.0286,0.0220,0.0592,1459,1471,1463,1461
6,4681,-0.0000,0.0000,1.3982,2.1653,-0.9432,1.3982,-4.3305,1.8865,0.0003,-0.1015,-0.0243,0.0021,1000,1005,1002,1000
6,4682,-0.0000,0.0000,1.3982,2.1670,-0.9434,1.3982,-4.3340,1.8868,0.0001,0.0111,-0.0033,-0.0169,1000,1005,1002,1000
6,4683,-0.0000,0.0000,1.3984,2.1666,-0.9435,1.3984,-4.3333,1.8871,-0.0001,-0.0217,0.0005,0.0079,1000,1004,1001,1000
6,4684,-0.0000,0.0000,1.3993,2.1654,-0.9421,1.3993,-4.3309,1.8841,-0.0004,-0.0627,0.0070,0.0362,1000,1005,1002,1000
6,4685,-0.0000,0.0000,1.3997,2.1669,-0.9429,1.3997,-4.3338,1.8859,0.0002,-0.0074,-0.0559,0.0179,1000,1005,1002,1000
6,4686,-0.0000,0.0000,1.4006,2.1646,-0.9437,1.4006,-4.3291,1.8874,-0.0001,-0.0588,-0.0225,0.0041,1000,1005,1002,1000
6,4687,-0.0000,0.0000,1.4020,2.1629,-0.9446,1.4020,-4.3258,1.8893,-2.8041,-0.0392,-0.0058,0.0608,1459,1471,1463,1460
6,4688,-0.0000,0.0000,1.4031,2.1650,-0.9443,1.4031,-4.3299,1.8887,-0.0003,-0.0077,0.0245,0.0391,1000,1005,1002,1000
6,4689,-0.0000,0.0000,1.4048,2.1643,-0.9436,1.4048,-4.3286,1.8872,-2.8096,-0.0466,0.0316,0.0184,1459,1471,1463,1461
6,4690,-0.0000,0.0000,1.4069,2.1650,-0.9426,1.4069,-4.3299,1.8851,-0.0011,-0.0338,0.0195,0.0854,1000,1005,1002,1000
6,4691,-0.0000,0.0000,1.4083,2.1641,-0.9422,1.4083,-4.3282,1.8844,-0.0001,-0.0582,0.0304,0.0128,1000,1005,1002,1000
6,4692,-0.0000,0.0000,1.4080,2.1653,-0.9412,1.4080,-4.3307,1.8824,0.0002,-0.0256,0.0254,-0.0115,1000,1004,1001,1000
6,4693,-0.0000,0.0000,1.4093,2.1654,-0.9415,1.4093,-4.3309,1.8831,-0.0000,-0.0529,-0.0166,0.0238,1000,1005,1002,1000
6,4694,-0.0000,0.0000,1.4098,2.1658,-0.9427,1.4098,-4.3316,1.8854,-0.0001,-0.0429,0.0043,0.0254,1000,1005,1002,1000
6,4695,-0.0000,0.0000,1.4090,2.1664,-0.9426,1.4090,-4.3328,1.8852,-2.8180,-0.0175,-0.0009,-0.0660,1459,1471,1463,1460
6,4696,-0.0000,0.0000,1.4091,2.1656,-0.9424,1.4091,-4.3313,1.8848,-0.0004,-0.0701,0.0028,0.0371,1000,1005,1002,1000
6,4697,-0.0000,0.0000,1.4092,2.1653,-0.9414,1.4092,-4.3306,1.8829,-0.0006,-0.0907,0.0717,0.0289,1000,1005,1002,1000
6,4698,-0.0000,0.0000,1.4111,2.1668,-0.9403,1.4111,-4.3336,1.8806,-0.0005,0.0447,0.0292,0.0405,1000,1005,1001,1000
6,4699,-0.0000,0.0000,1.4108,2.1682,-0.9403,1.4108,-4.3364,1.8806,0.0006,0.0018,-0.0248,-0.0401,1000,1005,1002,1000
6,4700,-0.0000,0.0000,1.4130,2.1678,-0.9409,1.4130,-4.3356,1.8817,-0.0004,-0.0551,0.0033,0.0419,1000,1005,1002,1000
6,4701,-0.0000,0.0000,1.4150,2.1684,-0.9420,1.4150,-4.3369,1.8839,-2.8300,-0.0388,-0.0266,0.0462,1459,1471,1463,1460
6,4702,-0.0000,0.0000,1.4146,2.1680,-0.9416,1.4146,-4.3361,1.8831,-0.0001,-0.0597,-0.0212,-0.0108,1000,1005,1002,1000
6,4703,-0.0000,0.0000,1.4165,2.1660,-0.9418,1.4165,-4.3319,1.8835,-0.0000,-0.0834,0.0012,0.0516,1000,1005,1002,1000
6,4704,-0.0000,0.0000,1.4169,2.1664,-0.9422,1.4169,-4.3328,1.8843,-2.8338,-0.0281,-0.0085,-0.0049,1459,1471,1463,1461
6,4705,-0.0000,0.0000,1.4171,2.1673,-0.9427,1.4171,-4.3347,1.8853,0.0001,-0.0284,-0.0287,0.0060,1000,1005,1002,1000
6,4706,-0.0000,0.0000,1.4186,2.1676,-0.9419,1.4186,-4.3351,1.8839,0.0001,-0.0117,0.0193,0.0345,1000,1005,1002,1000
6,4707,-0.0000,0.0000,1.4205,2.1681,-0.9426,1.4205,-4.3362,1.8853,-2.8411,-0.0385,0.0087,0.0355,1459,1471,1463,1461
6,4708,-0.0000,0.0000,1.4219,2.1675,-0.9416,1.4219,-4.3350,1.8833,-0.0011,-0.0561,0.0274,0.0690,1000,1005,1002,1000
6,4709,-0.0000,0.0000,1.4235,2.1677,-0.9422,1.4235,-4.3353,1.8844,-0.0006,-0.0430,-0.0058,0.0626,1000,1005,1002,1000
6,4710,-0.0000,0.0000,1.4241,2.1673,-0.9423,1.4241,-4.3347,1.8845,-2.8482,-0.0389,-0.0181,-0.0084,1459,1471,1463,1460
6,4711,-0.0000,0.0000,1.4260,2.1674,-0.9431,1.4260,-4.3347,1.8862,-0.0012,-0.0561,-0.0238,0.1045,1000,1005,1001,1000
6,4712,-0.0000,0.0000,1.4262,2.1677,-0.9429,1.4262,-4.3353,1.8858,-0.0004,-0.0402,-0.0136,0.0143,1000,1005,1002,1000
6,4713,-0.0000,0.0000,1.4265,2.1660,-0.9432,1.4265,-4.3321,1.8863,-0.0005,-0.0255,0.0054,0.0347,1000,1004,1001,1000
6,4714,-0.0000,0.0000,1.4296,2.1676,-0.9435,1.4296,-4.3352,1.8870,-0.0004,-0.0324,-0.0195,0.0416,1000,1005,1002,1000
6,4715,-0.0000,0.0000,1.4318,2.1690,-0.9451,1.4318,-4.3381,1.8903,-0.0003,0.0388,-0.0332,0.0538,1000,1005,1002,1000
6,4716,-0.0000,0.0000,1.4304,2.1713,-0.9450,1.4304,-4.3426,1.8901,-0.0010,0.0415,0.0034,0.0495,1000,1005,1002,1000
6,4717,-0.0000,0.0000,1.4313,2.1714,-0.9443,1.4313,-4.3428,1.8886,-0.0001,0.0014,0.0376,0.0033,1000,1005,1002,1000
6,4718,-0.0000,0.0000,1.4329,2.1693,-0.9420,1.4329,-4.3386,1.8840,0.0003,-0.0754,0.0573,0.0043,1000,1005,1002,1000
6,4719,-0.0000,0.0000,1.4332,2.1701,-0.9409,1.4332,-4.3402,1.8818,-0.0001,-0.0494,0.0044,0.0262,1000,1004,1001,1000
6,4720,-0.0000,0.0000,1.4349,2.1722,-0.9414,1.4349,-4.3444,1.8827,0.0002,0.0342,-0.0233,0.0014,1000,1005,1002,1000
6,4721,-0.0000,0.0000,1.4354,2.1748,-0.9416,1.4354,-4.3496,1.8832,0.0010,0.0183,-0.0270,-0.0183,1000,1005,1002,1000
6,4722,-0.0000,0.0000,1.4356,2.1759,-0.9416,1.4356,-4.3518,1.8832,-0.0003,0.0380,0.0028,0.0091,1000,1005,1001,1000
6,4723,-0.0000,0.0000,1.4365,2.1777,-0.9415,1.4365,-4.3554,1.8830,-0.0011,0.0032,0.0078,0.0711,1000,1005,1002,1000
6,4724,-0.0000,0.0000,1.4370,2.1792,-0.9415,1.4370,-4.3584,1.8830,-0.0003,-0.0389,0.0190,0.0393,1000,1005,1002,1000
6,4725,-0.0000,0.0000,1.4353,2.1781,-0.9406,1.4353,-4.3561,1.8812,-0.0006,-0.0517,0.0111,-0.0130,1000,1004,1001,1000
6,4726,-0.0000,0.0000,1.4361,2.1779,-0.9407,1.4361,-4.3558,1.8813,0.0001,-0.0337,-0.0108,-0.0103,1000,1005,1002,1000
6,4727,-0.0000,0.0000,1.4372,2.1779,-0.9417,1.4372,-4.3559,1.8835,-0.0012,-0.0549,-0.0392,0.0492,1000,1005,1002,1000
6,4728,-0.0000,0.0000,1.4378,2.1797,-0.9423,1.4378,-4.3595,1.8845,0.0002,0.0118,0.0019,0.0217,1000,1005,1001,1000
6,4729,-0.0000,0.0000,1.4393,2.1800,-0.9428,1.4393,-4.3600,1.8857,-0.0009,-0.0244,0.0092,0.0526,1000,1005,1002,1000
6,4730,-0.0000,0.0000,1.4401,2.1808,-0.9422,1.4401,-4.3617,1.8844,-0.0000,-0.0114,-0.0086,0.0428,1000,1005,1002,1000
6,4731,-0.0000,0.0000,1.4408,2.1826,-0.9417,1.4408,-4.3652,1.8835,-2.8815,-0.0127,0.0210,0.0225,1459,1471,1463,1460
6,4732,-0.0000,0.0000,1.4414,2.1840,-0.9423,1.4414,-4.3680,1.8847,-0.0003,-0.0089,-0.0298,0.0309,1000,1005,1002,1000
6,4733,-0.0000,0.0000,1.4417,2.1853,-0.9425,1.4417,-4.3706,1.8850,0.0002,-0.0024,0.0075,-0.0128,1000,1005,1002,1000
6,4734,-0.0000,0.0000,1.4425,2.1861,-0.9429,1.4425,-4.3722,1.8858,-0.0010,-0.0465,0.0022,0.0484,1000,1005,1002,1000
6,4735,-0.0000,0.0000,1.4428,2.1852,-0.9434,1.4428,-4.3703,1.8869,-0.0003,-0.0502,-0.0246,0.0081,1000,1005,1002,1000
6,4736,-0.0000,0.0000,1.4425,2.1846,-0.9427,1.4425,-4.3693,1.8855,-0.0001,-0.0238,0.0198,0.0111,1000,1005,1002,1000
6,4737,-0.0000,0.0000,1.4443,2.1850,-0.9426,1.4443,-4.3701,1.8852,-2.8886,-0.0246,0.0149,0.0663,1459,1471,1463,1460
6,4738,-0.0000,0.0000,1.4456,2.1854,-0.9434,1.4456,-4.3708,1.8867,-0.0005,-0.0520,-0.0092,0.0333,1000,1005,1002,1000
6,4739,-0.0000,0.0000,1.4453,2.1846,-0.9439,1.4453,-4.3691,1.8878,0.0001,-0.0672,-0.0052,0.0150,1000,1005,1002,1000
6,4740,-0.0000,0.0000,1.4457,2.1841,-0.9445,1.4457,-4.3682,1.8889,-0.0005,-0.0397,-0.0048,0.0040,1000,1004,1001,1000
6,4741,-0.0000,0.0000,1.4467,2.1842,-0.9453,1.4467,-4.3684,1.8906,-0.0008,-0.0386,-0.0026,0.0515,1000,1005,1002,1000
6,4742,-0.0000,0.0000,1.4484,2.1851,-0.9469,1.4484,-4.3701,1.8938,0.0001,0.0040,-0.0656,0.0129,1000,1005,1002,1000
6,4743,-0.0000,0.0000,1.4496,2.1852,-0.9478,1.4496,-4.3704,1.8957,-0.0006,-0.0189,0.0020,0.0215,1000,1005,1001,1000
6,4744,-0.0000,0.0000,1.4488,2.1878,-0.9494,1.4488,-4.3757,1.8989,0.0007,0.0464,-0.0518,-0.0429,1000,1005,1002,1000
6,4745,-0.0000,0.0000,1.4484,2.1885,-0.9502,1.4484,-4.3770,1.9005,-0.0005,-0.0093,-0.0050,0.0232,1000,1005,1002,1000
6,4746,-0.0000,0.0000,1.4501,2.1903,-0.9509,1.4501,-4.3806,1.9018,-2.9002,0.0053,0.0002,0.0294,1459,1471,1463,1461
6,4747,-0.0000,0.0000,1.4516,2.1919,-0.9511,1.4516,-4.3839,1.9023,-0.0001,0.0052,0.0026,0.0531,1000,1005,1002,1000
6,4748,-0.0000,0.0000,1.4542,2.1923,-0.9520,1.4542,-4.3845,1.9040,-0.0001,-0.0309,-0.0077,0.0416,1000,1005,1002,1000
6,4749,-0.0000,0.0000,1.4556,2.1930,-0.9502,1.4556,-4.3860,1.9004,-0.0005,-0.0194,0.0283,0.0395,1000,1005,1001,1000
6,4750,-0.0000,0.0000,1.4554,2.1941,-0.9496,1.4554,-4.3881,1.8993,-0.0004,-0.0052,0.0294,-0.0217,1000,1005,1002,1000
6,4751,-0.0000,0.0000,1.4580,2.1946,-0.9497,1.4580,-4.3892,1.8993,-0.0003,0.0043,0.0018,0.0507,1000,1005,1002,1000
6,4752,-0.0000,0.0000,1.4577,2.1946,-0.9511,1.4577,-4.3893,1.9023,-0.0001,-0.0269,-0.0188,-0.0079,1000,1005,1001,1000
6,4753,-0.0000,0.0000,1.4590,2.1928,-0.9511,1.4590,-4.3856,1.9022,-0.0003,-0.0818,-0.0089,0.0294,1000,1005,1002,1000
6,4754,-0.0000,0.0000,1.4586,2.1926,-0.9517,1.4586,-4.3852,1.9033,0.0006,-0.0350,-0.0433,-0.0399,1000,1005,1002,1000
6,4755,-0.0000,0.0000,1.4587,2.1928,-0.9539,1.4587,-4.3855,1.9079,-2.9175,-0.0582,-0.0584,0.0383,1459,1471,1463,1460
6,4756,-0.0000,0.0000,1.4609,2.1912,-0.9550,1.4609,-4.3825,1.9100,0.0001,-0.0560,-0.0289,0.0332,1000,1005,1002,1000
6,4757,-0.0000,0.0000,1.4624,2.1915,-0.9548,1.4624,-4.3831,1.9096,-0.0000,0.0017,0.0437,0.0268,1000,1005,1002,1000
6,4758,-0.0000,0.0000,1.4642,2.1909,-0.9548,1.4642,-4.3818,1.9097,-2.9283,-0.0588,0.0069,0.0609,1459,1471,1463,1461
6,4759,-0.0000,0.0000,1.4632,2.1922,-0.9542,1.4632,-4.3843,1.9085,0.0006,0.0115,-0.0041,-0.0628,1000,1005,1002,1000
6,4760,-0.0000,0.0000,1.4632,2.1940,-0.9557,1.4632,-4.3879,1.9114,0.0002,-0.0074,-0.0326,-0.0319,1000,1005,1002,1000
6,4761,-0.0000,0.0000,1.4636,2.1942,-0.9557,1.4636,-4.3883,1.9114,-0.0006,-0.0418,0.0166,0.0184,1000,1005,1001,1000
6,4762,-0.0000,0.0000,1.4645,2.1946,-0.9559,1.4645,-4.3891,1.9119,0.0001,-0.0385,-0.0180,0.0247,1000,1005,1002,1000
6,4763,-0.0000,0.0000,1.4628,2.1953,-0.9551,1.4628,-4.3906,1.9103,0.0005,0.0117,0.0196,-0.0569,1000,1005,1002,1000
6,4764,-0.0000,0.0000,1.4611,2.1967,-0.9543,1.4611,-4.3933,1.9086,-0.0001,0.0001,0.0033,0.0026,1000,1005,1001,1000
6,4765,-0.0000,0.0000,1.4611,2.1981,-0.9542,1.4611,-4.3961,1.9083,-0.0001,-0.0135,0.0193,0.0310,1000,1005,1002,1000
6,4766,-0.0000,0.0000,1.4603,2.1977,-0.9548,1.4603,-4.3955,1.9097,0.0002,-0.0088,-0.0058,-0.0186,1000,1005,1002,1000
6,4767,-0.0000,0.0000,1.4600,2.1990,-0.9546,1.4600,-4.3980,1.9092,-0.0004,-0.0205,0.0083,0.0074,1000,1005,1001,1000
6,4768,-0.0000,0.0000,1.4607,2.1978,-0.9560,1.4607,-4.3956,1.9119,0.0001,-0.0554,-0.0772,-0.0103,1000,1005,1002,1000
6,4769,-0.0000,0.0000,1.4618,2.1975,-0.9567,1.4618,-4.3950,1.9134,-0.0001,-0.0378,-0.0108,0.0327,1000,1005,1002,1000
6,4770,-0.0000,0.0000,1.4633,2.1969,-0.9571,1.4633,-4.3938,1.9142,-0.0011,-0.0625,-0.0123,0.0662,1000,1005,1001,1000
6,4771,-0.0000,0.0000,1.4633,2.1972,-0.9557,1.4633,-4.3945,1.9114,0.0008,-0.0200,0.0425,-0.0479,1000,1005,1002,1000
6,4772,-0.0000,0.0000,1.4636,2.1996,-0.9550,1.4636,-4.3992,1.9100,0.0007,0.0468,0.0542,-0.0241,1000,1005,1002,1000
6,4773,-0.0000,0.0000,1.4640,2.2012,-0.9564,1.4640,-4.4025,1.9128,0.0003,0.0296,-0.0219,-0.0066,1000,1005,1002,1000
6,4774,-0.0000,0.0000,1.4654,2.2017,-0.9580,1.4654,-4.4033,1.9160,-0.0008,-0.0214,-0.0312,0.0485,1000,1005,1002,1000
6,4775,-0.0000,0.0000,1.4658,2.2015,-0.9584,1.4658,-4.4029,1.9167,-0.0001,-0.0567,0.0199,0.0235,1000,1005,1002,1000
6,4776,-0.0000,0.0000,1.4669,2.2019,-0.9577,1.4669,-4.4038,1.9154,-2.9338,-0.0204,0.0440,0.0653,1459,1471,1463,1460
6,4777,-0.0000,0.0000,1.4675,2.2010,-0.9578,1.4675,-4.4021,1.9157,0.0001,-0.0654,-0.0067,0.0044,1000,1005,1002,1000
6,4778,-0.0000,0.0000,1.4681,2.2005,-0.9563,1.4681,-4.4010,1.9125,-0.0003,-0.0575,0.0144,0.0263,1000,1005,1002,1000
6,4779,-0.0000,0.0000,1.4669,2.2007,-0.9555,1.4669,-4.4014,1.9109,-0.0003,-0.0348,0.0252,0.0102,1000,1005,1001,1000
6,4780,-0.0000,0.0000,1.4658,2.1998,-0.9539,1.4658,-4.3996,1.9079,0.0001,-0.0468,0.0088,-0.0309,1000,1005,1002,1000
6,4781,-0.0000,0.0000,1.4663,2.2000,-0.9530,1.4663,-4.3999,1.9060,-0.0001,-0.0171,0.0062,0.0313,1000,1005,1002,1000
6,4782,-0.0000,0.0000,1.4671,2.2005,-0.9527,1.4671,-4.4009,1.9053,-2.9342,-0.0446,0.0149,0.0016,1459,1471,1463,1460
6,4783,-0.0000,0.0000,1.4695,2.2015,-0.9529,1.4695,-4.4030,1.9059,-0.0008,0.0063,-0.0083,0.0805,1000,1005,1002,1000
6,4784,-0.0000,0.0000,1.4703,2.2017,-0.9539,1.4703,-4.4035,1.9078,-0.0003,-0.0133,-0.0234,0.0301,1000,1005,1002,1000
6,4785,-0.0000,0.0000,1.4705,2.2028,-0.9541,1.4705,-4.4055,1.9082,-2.9409,0.0141,-0.0164,-0.0092,1459,1471,1463,1460
6,4786,-0.0000,0.0000,1.4717,2.2042,-0.9536,1.4717,-4.4084,1.9072,-0.0003,-0.0070,-0.0208,0.0391,1000,1005,1002,1000
6,4787,-0.0000,0.0000,1.4751,2.2015,-0.9532,1.4751,-4.4029,1.9064,-0.0019,-0.0569,0.0311,0.1173,1000,1005,1002,1000
6,4788,-0.0000,0.0000,1.4764,2.1999,-0.9539,1.4764,-4.3997,1.9079,-2.9529,-0.0665,-0.0484,-0.0004,1459,1471,1463,1461
6,4789,-0.0000,0.0000,1.4776,2.1995,-0.9541,1.4776,-4.3991,1.9082,-0.0004,-0.0264,-0.0042,0.0372,1000,1005,1002,1000
6,4790,-0.0000,0.0000,1.4781,2.1993,-0.9550,1.4781,-4.3986,1.9100,-0.0000,-0.0356,-0.0272,0.0018,1000,1005,1002,1000
6,4791,-0.0000,0.0000,1.4787,2.1984,-0.9544,1.4787,-4.3968,1.9088,-2.9574,-0.0401,-0.0103,0.0298,1459,1471,1463,1461
6,4792,-0.0000,0.0000,1.4799,2.1986,-0.9539,1.4799,-4.3973,1.9077,-0.0000,-0.0155,0.0315,0.0295,1000,1005,1002,1000
6,4793,-0.0000,0.0000,1.4814,2.1981,-0.9536,1.4814,-4.3961,1.9072,0.0008,-0.0414,0.0155,-0.0091,1000,1005,1002,1000
6,4794,-0.0000,0.0000,1.4818,2.1981,-0.9528,1.4818,-4.3963,1.9056,-0.0000,-0.0134,0.0106,0.0046,1000,1005,1001,1000
6,4795,-0.0000,0.0000,1.4830,2.1997,-0.9515,1.4830,-4.3995,1.9030,-0.0001,0.0015,0.0341,0.0110,1000,1005,1002,1000
6,4796,-0.0000,0.0000,1.4830,2.1989,-0.9524,1.4830,-4.3977,1.9047,0.0001,-0.0749,-0.0641,0.0060,1000,1005,1002,1000
6,4797,-0.0000,0.0000,1.4840,2.1985,-0.9537,1.4840,-4.3971,1.9073,-0.0006,-0.0384,-0.0058,0.0404,1000,1005,1001,1000
6,4798,-0.0000,0.0000,1.4842,2.1984,-0.9535,1.4842,-4.3968,1.9071,0.0007,-0.0596,-0.0045,-0.0095,1000,1005,1002,1000
6,4799,-0.0000,0.0000,1.4856,2.1982,-0.9539,1.4856,-4.3964,1.9078,-0.0008,-0.0411,-0.0094,0.0725,1000,1005,1002,1000
6,4800,-0.0000,0.0000,1.4852,2.1974,-0.9528,1.4852,-4.3948,1.9055,-0.0001,-0.0644,0.0035,-0.0049,1000,1004,1001,1000
6,4801,-0.0000,0.0000,1.4843,2.1961,-0.9522,1.4843,-4.3921,1.9043,0.0005,-0.0385,0.0052,-0.0300,1000,1005,1002,1000
6,4802,-0.0000,0.0000,1.4840,2.1967,-0.9505,1.4840,-4.3935,1.9011,0.0003,0.0016,0.0271,-0.0008,1000,1005,1002,1000
6,4803,-0.0000,0.0000,1.4845,2.1960,-0.9508,1.4845,-4.3920,1.9017,-0.0006,-0.0800,0.0425,0.0318,1000,1004,1001,1000
6,4804,-0.0000,0.0000,1.4854,2.1947,-0.9504,1.4854,-4.3894,1.9007,-0.0000,-0.0754,0.0440,0.0262,1000,1005,1002,1000
6,4805,-0.0000,0.0000,1.4849,2.1956,-0.9497,1.4849,-4.3911,1.8993,-0.0000,-0.0263,0.0223,0.0004,1000,1005,1002,1000
6,4806,-0.0000,0.0000,1.4857,2.1964,-0.9499,1.4857,-4.3928,1.8998,-0.0006,-0.0405,0.0159,0.0347,1000,1005,1002,1000
6,4807,-0.0000,0.0000,1.4862,2.1959,-0.9495,1.4862,-4.3917,1.8989,-0.0004,-0.0423,0.0257,0.0409,1000,1005,1002,1000
6,4808,-0.0000,0.0000,1.4873,2.1951,-0.9492,1.4873,-4.3903,1.8985,-0.0006,-0.0655,0.0298,0.0327,1000,1005,1002,1000
6,4809,-0.0000,0.0000,1.4874,2.1962,-0.9491,1.4874,-4.3924,1.8983,-2.9748,-0.0303,-0.0038,0.0118,1497,1509,1501,1498
6,4810,-0.0000,0.0000,1.4886,2.1955,-0.9492,1.4886,-4.3909,1.8984,0.0001,-0.0653,-0.0268,-0.0009,1000,1005,1002,1000
6,4811,-0.0000,0.0000,1.4885,2.1964,-0.9492,1.4885,-4.3927,1.8984,0.0001,0.0034,0.0104,-0.0009,1000,1005,1002,1000
6,4812,-0.0000,0.0000,1.4885,2.1971,-0.9498,1.4885,-4.3943,1.8995,-2.9770,-0.0233,-0.0107,0.0298,1525,1537,1529,1527
6,4813,-0.0000,0.0000,1.4887,2.1980,-0.9490,1.4887,-4.3961,1.8980,-0.0000,-0.0478,0.0100,0.0037,1000,1005,1002,1000
6,4814,-0.0000,0.0000,1.4895,2.1988,-0.9500,1.4895,-4.3977,1.9001,-0.0001,-0.0395,-0.0051,0.0242,1000,1005,1002,1000
6,4815,-0.0000,0.0000,1.4900,2.2007,-0.9503,1.4900,-4.4014,1.9007,0.0008,0.0145,0.0279,0.0000,1000,1005,1002,1000
6,4816,-0.0000,0.0000,1.4898,2.1995,-0.9496,1.4898,-4.3989,1.8992,0.0003,-0.0425,0.0196,-0.0232,1000,1005,1002,1000
6,4817,-0.0000,0.0000,1.4897,2.1995,-0.9494,1.4897,-4.3990,1.8987,0.0002,-0.0668,-0.0135,0.0023,1000,1005,1002,1000
6,4818,-0.0000,0.0000,1.4889,2.1992,-0.9493,1.4889,-4.3984,1.8986,-0.0004,-0.0442,-0.0104,-0.0009,1000,1005,1001,1000
6,4819,-0.0000,0.0000,1.4891,2.1994,-0.9475,1.4891,-4.3989,1.8949,-0.0001,-0.0584,0.0569,0.0079,1000,1005,1002,1000
6,4820,-0.0000,0.0000,1.4903,2.1997,-0.9469,1.4903,-4.3994,1.8938,-0.0003,-0.0341,-0.0143,0.0204,1000,1005,1002,1000
6,4821,-0.0000,0.0000,1.4906,2.1994,-0.9467,1.4906,-4.3988,1.8933,-0.0005,-0.0319,0.0447,0.0218,1000,1004,1001,1000
6,4822,-0.0000,0.0000,1.4914,2.1990,-0.9457,1.4914,-4.3979,1.8913,0.0006,-0.0412,0.0220,-0.0110,1000,1005,1002,1000
6,4823,-0.0000,0.0000,1.4928,2.1979,-0.9450,1.4928,-4.3957,1.8900,-0.0005,-0.0829,0.0091,0.0552,1000,1005,1002,1000
6,4824,-0.0000,0.0000,1.4931,2.2000,-0.9454,1.4931,-4.3999,1.8908,0.0002,0.0219,0.0106,-0.0040,1000,1005,1002,1000
6,4825,-0.0000,0.0000,1.4929,2.2008,-0.9446,1.4929,-4.4016,1.8892,0.0003,0.0166,0.0445,-0.0054,1000,1005,1002,1000
6,4826,-0.0000,0.0000,1.4934,2.2018,-0.9431,1.4934,-4.4036,1.8863,0.0003,-0.0346,0.0307,-0.0018,1000,1005,1002,1000
6,4827,-0.0000,0.0000,1.4955,2.2021,-0.9430,1.4955,-4.4042,1.8860,0.0003,-0.0251,-0.0166,0.0327,1000,1005,1001,1000
6,4828,-0.0000,0.0000,1.4958,2.1997,-0.9439,1.4958,-4.3995,1.8878,-0.0001,-0.1020,-0.0108,0.0302,1000,1005,1002,1000
6,4829,-0.0000,0.0000,1.4959,2.1999,-0.9414,1.4959,-4.3998,1.8828,0.0001,-0.0498,0.0407,0.0072,1000,1005,1002,1000
6,4830,-0.0000,0.0000,1.4957,2.1996,-0.9398,1.4957,-4.3992,1.8797,-0.0001,-0.0574,0.0305,0.0081,1000,1005,1002,1000
6,4831,-0.0000,0.0000,1.4967,2.2016,-0.9412,1.4967,-4.4033,1.8824,0.0002,0.0513,-0.0304,0.0041,1000,1005,1002,1000
6,4832,-0.0000,0.0000,1.4976,2.2014,-0.9409,1.4976,-4.4028,1.8819,-0.0006,-0.0390,-0.0067,0.0387,1000,1005,1002,1000
6,4833,-0.0000,0.0000,1.4980,2.2024,-0.9419,1.4980,-4.4049,1.8839,-0.0005,-0.0270,-0.0065,0.0192,1000,1005,1001,1000
6,4834,-0.0000,0.0000,1.4966,2.2011,-0.9414,1.4966,-4.4021,1.8827,0.0006,-0.0946,0.0467,-0.0697,1000,1005,1002,1000
6,4835,-0.0000,0.0000,1.4980,2.2010,-0.9428,1.4980,-4.4021,1.8856,-0.0010,-0.0095,-0.0209,0.0755,1000,1005,1002,1000
6,4836,-0.0000,0.0000,1.4970,2.2012,-0.9412,1.4970,-4.4024,1.8823,0.0007,-0.0610,0.0682,-0.0378,1000,1005,1002,1000
6,4837,-0.0000,0.0000,1.4961,2.2021,-0.9419,1.4961,-4.4041,1.8838,0.0010,-0.0032,-0.0131,-0.0368,1000,1005,1002,1000
6,4838,-0.0000,0.0000,1.4975,2.2017,-0.9419,1.4975,-4.4034,1.8838,-0.0004,-0.0147,-0.0108,0.0472,1000,1005,1002,1000
6,4839,-0.0000,0.0000,1.4975,2.2035,-0.9413,1.4975,-4.4069,1.8826,-2.9949,0.0009,0.0074,-0.0345,1530,1542,1534,1531
6,4840,-0.0000,0.0000,1.4996,2.2039,-0.9412,1.4996,-4.4079,1.8824,-0.0006,-0.0284,0.0028,0.0698,1000,1005,1002,1000
6,4841,-0.0000,0.0000,1.4997,2.2037,-0.9402,1.4997,-4.4075,1.8803,-0.0009,-0.0117,-0.0144,0.0324,1000,1005,1002,1000
6,4842,-0.0000,0.0000,1.5000,2.2046,-0.9399,1.5000,-4.4092,1.8798,-0.0000,0.0012,-0.0033,0.0202,1000,1005,1002,1000
