Version,Time,Roll_Target,Pitch_Target,Yaw_Target,Roll,Pitch,Yaw,Gyro_Roll_Target,Gyro_Pitch_Target,Gyro_Yaw_Target,Gyro_Roll,Gyro_Pitch,Gyro_Yaw,PWM1,PWM2,PWM3,PWM4
0,1,0.0000,0.0000,0.0000,0.6713,1.3225,0.0000,-1.3426,-2.6450,0.0000,0.0000,0.0000,0.0000,1000,1000,1000,1000
0,2,0.0000,0.0000,0.0000,0.6713,1.3225,0.0000,-1.3426,-2.6450,0.0000,0.0000,0.0000,0.0000,1000,1000,1000,1000
0,3,0.0000,0.0000,0.0000,0.6713,1.3225,0.0000,-1.3426,-2.6450,0.0000,0.0000,0.0000,0.0000,1000,1000,1000,1000
0,4,0.0000,0.0000,0.0000,0.6713,1.3225,0.0000,-1.3426,-2.6450,0.0000,0.0000,0.0000,0.0000,1000,1000,1000,1000
0,5,0.0000,0.0000,0.0000,0.6713,1.3225,0.0000,-1.3426,-2.6450,0.0000,0.0000,0.0000,0.0000,1000,1000,1000,1000
0,6,0.0000,0.0000,0.0000,0.6713,1.3225,0.0000,-1.3426,-2.6450,0.0000,0.0000,0.0000,0.0000,1000,1000,1000,1000
0,7,0.0000,0.0000,0.0000,0.6713,1.3225,0.0000,-1.3426,-2.6450,0.0000,0.0000,0.0000,0.0000,1000,1000,1000,1000
0,8,0.0000,0.0000,0.0000,0.6713,1.3225,0.0000,-1.3426,-2.6450,0.0000,0.0000,0.0000,0.0000,1000,1000,1000,1000
0,9,0.0000,0.0000,0.0000,0.6713,1.3225,0.0000,-1.3426,-2.6450,0.0000,0.0000,0.0000,0.0000,1000,1000,1000,1000
0,10,0.0000,0.0000,0.0000,0.6713,1.3225,0.0000,-1.3426,-2.6450,0.0000,0.0000,0.0000,0.0000,1000,1000,1000,1000
0,11,0.0000,0.0000,0.0000,0.6713,1.3225,0.0000,-1.3425,-2.6451,0.0000,0.0000,0.0000,0.0000,1000,1000,1000,1000
0,12,0.0000,0.0000,0.0000,0.6713,1.3225,0.0000,-1.3425,-2.6451,0.0000,0.0000,0.0000,0.0000,1000,1000,1000,1000
0,13,0.0000,0.0000,0.0000,0.6713,1.3225,0.0000,-1.3425,-2.6451,0.0000,0.0000,0.0000,0.0000,1000,1000,1000,1000
0,14,0.0000,0.0000,0.0000,0.6713,1.3225,0.0000,-1.3425,-2.6451,0.0000,0.0000,0.0000,0.0000,1000,1000,1000,1000
0,15,0.0000,0.0000,0.0000,0.6712,1.3226,0.0000,-1.3425,-2.6451,0.0000,0.0000,0.0000,0.0000,1000,1000,1000,1000
0,16,0.0000,0.0000,0.0000,0.6712,1.3226,0.0000,-1.3425,-2.6451,0.0000,0.0000,0.0000,0.0000,1000,1000,1000,1000
0,17,0.0000,0.0000,0.0000,0.6712,1.3226,0.0000,-1.3425,-2.6452,0.0000,0.0000,0.0000,0.0000,1000,1000,1000,1000
0,18,0.0000,0.0000,0.0000,0.6712,1.3231,0.0000,-1.3424,-2.6461,0.0000,0.0000,0.0729,0.0000,999,1001,1001,999
0,19,0.0000,0.0000,0.0000,0.6712,1.3234,0.0000,-1.3424,-2.6469,0.0000,0.0000,0.0044,0.0000,1000,1000,1000,1000
0,20,0.0000,0.0000,0.0000,0.6712,1.3235,0.0000,-1.3424,-2.6469,0.0000,0.0000,0.0003,0.0000,1000,1000,1000,1000
0,21,0.0000,0.0000,0.0000,0.6712,1.3235,0.0000,-1.3424,-2.6470,0.0000,0.0000,0.0000,0.0000,1000,1000,1000,1000
0,22,0.0000,0.0000,0.0000,0.6712,1.3235,0.0000,-1.3424,-2.6470,0.0000,0.0000,0.0000,0.0000,1000,1000,1000,1000
0,23,0.0000,0.0000,0.0000,0.6712,1.3235,0.0000,-1.3424,-2.6470,0.0000,0.0000,0.0000,0.0000,1000,1000,1000,1000
0,24,0.0000,0.0000,0.0000,0.6712,1.3235,0.0000,-1.3423,-2.6471,0.0000,0.0000,0.0000,0.0000,1000,1000,1000,1000
0,25,0.0000,0.0000,0.0000,0.6712,1.3236,0.0000,-1.3423,-2.6471,0.0000,0.0000,0.0000,0.0000,1000,1000,1000,1000
0,26,0.0000,0.0000,0.0000,0.6711,1.3236,0.0000,-1.3423,-2.6472,0.0000,0.0000,0.0000,0.0000,1000,1000,1000,1000
0,27,0.0000,0.0000,0.0000,0.6711,1.3236,0.0000,-1.3423,-2.6472,0.0000,0.0000,0.0000,0.0000,1000,1000,1000,1000
0,28,0.0000,0.0000,0.0000,0.6711,1.3236,0.0000,-1.3422,-2.6473,0.0000,0.0000,0.0000,0.0000,1000,1000,1000,1000
0,29,0.0000,0.0000,0.0000,0.6711,1.3237,0.0000,-1.3421,-2.6473,0.0000,0.0000,0.0000,0.0000,1000,1000,1000,1000
0,30,0.0000,0.0000,0.0000,0.6710,1.3237,0.0000,-1.3421,-2.6474,0.0000,0.0000,0.0000,0.0000,1000,1000,1000,1000
0,31,0.0000,0.0000,0.0000,0.6710,1.3237,0.0000,-1.3420,-2.6474,0.0000,0.0000,0.0000,0.0000,1000,1000,1000,1000
0,32,0.0000,0.0000,0.0000,0.6710,1.3237,0.0000,-1.3420,-2.6475,0.0000,0.0000,0.0000,0.0000,1000,1000,1000,1000
0,33,0.0000,0.0000,0.0000,0.6710,1.3238,0.0000,-1.3419,-2.6475,0.0000,0.0000,0.0000,0.0000,1000,1000,1000,1000
0,34,0.0000,0.0000,0.0000,0.6709,1.3238,0.0000,-1.3419,-2.6476,0.0000,0.0000,0.0000,0.0000,1000,1000,1000,1000
0,35,0.0000,0.0000,0.0000,0.6709,1.3238,0.0000,-1.3418,-2.6477,0.0000,0.0000,0.0000,0.0000,1000,1000,1000,1000
0,36,0.0000,0.0000,0.0000,0.6709,1.3239,0.0000,-1.3418,-2.6478,0.0000,0.0000,0.0000,0.0000,1000,1000,1000,1000
0,37,0.0000,0.0000,0.0000,0.6709,1.3239,0.0000,-1.3417,-2.6478,0.0000,0.0000,0.0000,0.0000,1000,1000,1000,1000
0,38,0.0000,0.0000,0.0000,0.6708,1.3240,0.0000,-1.3417,-2.6479,0.0000,0.0000,0.0000,0.0000,1000,1000,1000,1000
0,39,0.0000,0.0000,0.0000,0.6708,1.3240,0.0000,-1.3416,-2.6480,0.0000,0.0000,0.0000,0.0000,1000,1000,1000,1000
0,40,0.0000,0.0000,0.0000,0.6708,1.3240,0.0000,-1.3415,-2.6481,0.0000,0.0000,0.0000,0.0000,1000,1000,1000,1000
0,41,0.0000,0.0000,0.0000,0.6707,1.3241,0.0000,-1.3414,-2.6482,0.0000,0.0000,0.0000,0.0000,1000,1000,1000,1000
0,42,0.0000,0.0000,0.0000,0.6707,1.3242,0.0000,-1.3414,-2.6483,0.0000,0.0000,0.0000,0.0000,1000,1000,1000,1000
0,43,0.0000,0.0000,0.0000,0.6698,1.3241,0.0000,-1.3397,-2.6482,0.0000,-0.0820,0.0000,0.0000,1000,1000,1000,1000
0,44,0.0000,0.0000,0.0000,0.6686,1.3233,0.0000,-1.3373,-2.6466,0.0000,-0.0175,-0.0062,0.0000,1000,1000,1000,1000
0,45,0.0000,0.0000,0.0000,0.6700,1.3230,0.0000,-1.3400,-2.6461,0.0000,0.1306,-0.0004,0.0000,1000,1000,1000,1000
0,46,0.0000,0.0000,0.0000,0.6709,1.3230,0.0000,-1.3419,-2.6461,0.0000,0.0144,-0.0000,0.0000,1000,1000,1000,1000
0,47,0.0000,0.0000,0.0000,0.6703,1.3228,0.0000,-1.3407,-2.6457,0.0000,-0.0212,-0.0000,0.0000,1000,1000,1000,1000
0,48,0.0000,0.0000,0.0000,0.6702,1.3227,0.0000,-1.3403,-2.6453,0.0000,-0.0013,-0.0000,0.0000,1000,1000,1000,1000
0,49,0.0000,0.0000,0.0000,0.6699,1.3227,0.0000,-1.3398,-2.6455,0.0000,-0.0001,-0.0000,0.0000,1000,1000,1000,1000
0,50,0.0000,0.0000,0.0000,0.6699,1.3228,0.0000,-1.3398,-2.6455,0.0000,-0.0000,-0.0000,0.0000,1000,1000,1000,1000
0,51,0.0000,0.0000,0.0000,0.6698,1.3228,0.0000,-1.3397,-2.6457,0.0000,-0.0000,-0.0000,0.0000,1000,1000,1000,1000
0,52,0.0000,0.0000,0.0000,0.6694,1.3229,0.0000,-1.3389,-2.6458,0.0000,-0.0141,-0.0000,0.0000,1000,1000,1000,1000
0,53,0.0000,0.0000,0.0000,0.6693,1.3230,0.0000,-1.3386,-2.6459,0.0000,-0.0008,-0.0000,0.0000,1000,1000,1000,1000
0,54,0.0000,0.0000,0.0000,0.6692,1.3230,0.0000,-1.3384,-2.6460,0.0000,-0.0001,-0.0000,0.0000,1000,1000,1000,1000
0,55,0.0000,0.0000,0.0000,0.6691,1.3231,0.0000,-1.3383,-2.6461,0.0000,-0.0000,-0.0000,0.0000,1000,1000,1000,1000
0,56,0.0000,0.0000,0.0000,0.6690,1.3231,0.0000,-1.3381,-2.6462,0.0000,-0.0000,-0.0000,0.0000,1000,1000,1000,1000
0,57,0.0000,0.0000,0.0000,0.6686,1.3231,0.0000,-1.3372,-2.6463,0.0000,-0.0141,-0.0000,0.0000,1000,1000,1000,1000
0,58,0.0000,0.0000,0.0000,0.6684,1.3232,0.0000,-1.3369,-2.6465,0.0000,-0.0008,-0.0000,0.0000,1000,1000,1000,1000
0,59,0.0000,0.0000,0.0000,0.6683,1.3233,0.0000,-1.3367,-2.6466,0.0000,-0.0001,-0.0000,0.0000,1000,1000,1000,1000
0,60,0.0000,0.0000,0.0000,0.6683,1.3234,0.0000,-1.3365,-2.6469,0.0000,-0.0000,-0.0000,0.0000,1000,1000,1000,1000
0,61,0.0000,0.0000,0.0000,0.6682,1.3236,0.0000,-1.3363,-2.6471,0.0000,-0.0000,-0.0000,0.0000,1000,1000,1000,1000
0,62,0.0000,0.0000,0.0000,0.6680,1.3237,0.0000,-1.3360,-2.6474,0.0000,-0.0000,-0.0000,0.0000,1000,1000,1000,1000
0,63,0.0000,0.0000,0.0000,0.6679,1.3238,0.0000,-1.3358,-2.6476,0.0000,-0.0000,-0.0000,0.0000,1000,1000,1000,1000
0,64,0.0000,0.0000,0.0000,0.6678,1.3239,0.0000,-1.3356,-2.6477,0.0000,-0.0000,-0.0000,0.0000,1000,1000,1000,1000
0,65,0.0000,0.0000,0.0000,0.6677,1.3240,0.0000,-1.3354,-2.6480,0.0000,-0.0000,-0.0000,0.0000,1000,1000,1000,1000
0,66,0.0000,0.0000,0.0000,0.6675,1.3241,0.0000,-1.3351,-2.6482,0.0000,-0.0000,-0.0000,0.0000,1000,1000,1000,1000
0,67,0.0000,0.0000,0.0000,0.6674,1.3242,0.0000,-1.3348,-2.6484,0.0000,-0.0000,-0.0000,0.0000,1000,1000,1000,1000
0,68,0.0000,0.0000,0.0000,0.6672,1.3243,0.0000,-1.3345,-2.6487,0.0000,-0.0000,-0.0000,0.0000,1000,1000,1000,1000
0,69,0.0000,0.0000,0.0000,0.6671,1.3244,0.0000,-1.3342,-2.6487,0.0000,-0.0000,-0.0000,0.0000,1000,1000,1000,1000
0,70,0.0000,0.0000,0.0000,0.6669,1.3244,0.0000,-1.3338,-2.6488,0.0000,-0.0000,-0.0000,0.0000,1000,1000,1000,1000
0,71,0.0000,0.0000,0.0000,0.6668,1.3246,0.0000,-1.3335,-2.6491,0.0000,-0.0000,-0.0000,0.0000,1000,1000,1000,1000
0,72,0.0000,0.0000,0.0000,0.6666,1.3247,0.0000,-1.3333,-2.6493,0.0000,-0.0000,-0.0000,0.0000,1000,1000,1000,1000
0,73,0.0000,0.0000,0.0000,0.6666,1.3248,0.0000,-1.3331,-2.6496,0.0000,-0.0000,-0.0000,0.0000,1000,1000,1000,1000
0,74,0.0000,0.0000,0.0000,0.6664,1.3250,0.0000,-1.3327,-2.6499,0.0000,-0.0000,-0.0000,0.0000,1000,1000,1000,1000
0,75,0.0000,0.0000,0.0000,0.6663,1.3251,0.0000,-1.3325,-2.6502,0.0000,-0.0000,-0.0000,0.0000,1000,1000,1000,1000
0,76,0.0000,0.0000,0.0000,0.6662,1.3253,0.0000,-1.3324,-2.6507,0.0000,-0.0000,-0.0000,0.0000,1000,1000,1000,1000
0,77,0.0000,0.0000,0.0000,0.6661,1.3255,0.0000,-1.3321,-2.6510,0.0000,-0.0000,-0.0000,0.0000,1000,1000,1000,1000
0,78,0.0000,0.0000,0.0000,0.6659,1.3258,0.0000,-1.3317,-2.6516,0.0000,-0.0000,-0.0000,0.0000,1000,1000,1000,1000
0,79,0.0000,0.0000,0.0000,0.6657,1.3259,0.0000,-1.3315,-2.6518,0.0000,-0.0000,-0.0000,0.0000,1000,1000,1000,1000
0,80,0.0000,0.0000,0.0000,0.6656,1.3261,0.0000,-1.3312,-2.6522,0.0000,-0.0000,-0.0000,0.0000,1000,1000,1000,1000
0,81,0.0000,0.0000,0.0000,0.6654,1.3263,0.0000,-1.3309,-2.6525,0.0000,-0.0000,-0.0000,0.0000,1000,1000,1000,1000
0,82,0.0000,0.0000,0.0000,0.6653,1.3265,0.0000,-1.3307,-2.6529,0.0000,-0.0000,-0.0000,0.0000,1000,1000,1000,1000
0,83,0.0000,0.0000,0.0000,0.6651,1.3267,0.0000,-1.3302,-2.6534,0.0000,-0.0000,-0.0000,0.0000,1000,1000,1000,1000
0,84,0.0000,0.0000,0.0000,0.6649,1.3268,0.0000,-1.3297,-2.6537,0.0000,-0.0000,-0.0000,0.0000,1000,1000,1000,1000
0,85,0.0000,0.0000,0.0000,0.6647,1.3271,0.0000,-1.3294,-2.6542,0.0000,-0.0000,-0.0000,0.0000,1000,1000,1000,1000
0,86,0.0000,0.0000,0.0000,0.6645,1.3273,0.0000,-1.3290,-2.6546,0.0000,-0.0000,-0.0000,0.0000,1000,1000,1000,1000
0,87,0.0000,0.0000,0.0000,0.6643,1.3275,0.0000,-1.3285,-2.6549,0.0000,-0.0000,-0.0000,0.0000,1000,1000,1000,1000
0,88,0.0000,0.0000,0.0000,0.6641,1.3277,0.0000,-1.3283,-2.6554,0.0000,-0.0000,-0.0000,0.0000,1000,1000,1000,1000
0,89,0.0000,0.0000,0.0000,0.6639,1.3279,0.0000,-1.3279,-2.6558,0.0000,-0.0000,-0.0000,0.0000,1000,1000,1000,1000
0,90,0.0000,0.0000,0.0000,0.6637,1.3281,0.0000,-1.3273,-2.6563,0.0000,-0.0000,-0.0000,0.0000,1000,1000,1000,1000
0,91,0.0000,0.0000,0.0000,0.6633,1.3284,0.0000,-1.3266,-2.6569,0.0000,-0.0000,-0.0000,0.0000,1000,1000,1000,1000
0,92,0.0000,0.0000,0.0000,0.6631,1.3287,0.0000,-1.3262,-2.6574,0.0000,-0.0000,-0.0000,0.0000,1000,1000,1000,1000
0,93,0.0000,0.0000,0.0000,0.6628,1.3290,0.0000,-1.3256,-2.6580,0.0000,-0.0000,-0.0000,0.0000,1000,1000,1000,1000
0,94,0.0000,0.0000,0.0000,0.6624,1.3293,0.0000,-1.3248,-2.6587,0.0000,-0.0000,-0.0000,0.0000,1000,1000,1000,1000
0,95,0.0000,0.0000,0.0000,0.6624,1.3294,0.0000,-1.3247,-2.6589,0.0000,-0.0000,-0.0000,0.0000,1000,1000,1000,1000
0,96,0.0000,0.0000,0.0000,0.6621,1.3297,0.0000,-1.3241,-2.6594,0.0000,-0.0000,-0.0000,0.0000,1000,1000,1000,1000
0,97,0.0000,0.0000,0.0000,0.6617,1.3301,0.0000,-1.3234,-2.6603,0.0000,-0.0000,-0.0000,0.0000,1000,1000,1000,1000
0,98,0.0000,0.0000,0.0000,0.6614,1.3306,0.0000,-1.3228,-2.6612,0.0000,-0.0000,-0.0000,0.0000,1000,1000,1000,1000
0,99,0.0000,0.0000,0.0000,0.6612,1.3310,0.0000,-1.3223,-2.6619,0.0000,-0.0000,-0.0000,0.0000,1000,1000,1000,1000
0,100,0.0000,0.0000,0.0000,0.6609,1.3314,0.0000,-1.3217,-2.6629,0.0000,-0.0000,-0.0000,0.0000,1000,1000,1000,1000
0,101,0.0000,0.0000,0.0000,0.6606,1.3319,0.0000,-1.3211,-2.6637,0.0000,-0.0000,-0.0000,0.0000,1000,1000,1000,1000
0,102,0.0000,0.0000,0.0000,0.6601,1.3323,0.0000,-1.3203,-2.6646,0.0000,-0.0000,-0.0000,0.0000,1000,1000,1000,1000
0,103,0.0000,0.0000,0.0000,0.6597,1.3325,0.0000,-1.3195,-2.6650,0.0000,-0.0000,-0.0000,0.0000,1000,1000,1000,1000
0,104,0.0000,0.0000,0.0000,0.6594,1.3329,0.0000,-1.3187,-2.6658,0.0000,-0.0000,-0.0000,0.0000,1000,1000,1000,1000
0,105,0.0000,0.0000,0.0000,0.6591,1.3333,0.0000,-1.3182,-2.6666,0.0000,-0.0000,-0.0000,0.0000,1000,1000,1000,1000
0,106,0.0000,0.0000,0.0000,0.6586,1.3336,0.0000,-1.3173,-2.6672,0.0000,-0.0000,-0.0000,0.0000,999,1001,1001,999
0,107,0.0000,0.0000,0.0000,0.6582,1.3340,0.0000,-1.3163,-2.6680,0.0000,-0.0000,-0.0000,0.0000,999,1001,1001,999
0,108,0.0000,0.0000,0.0000,0.6576,1.3344,0.0000,-1.3152,-2.6688,0.0000,-0.0000,-0.0000,0.0000,999,1001,1001,999
0,109,0.0000,0.0000,0.0000,0.6571,1.3352,0.0000,-1.3142,-2.6703,0.0000,-0.0000,0.0049,0.0000,999,1001,1001,999
0,110,0.0000,0.0000,0.0000,0.6567,1.3355,0.0000,-1.3135,-2.6711,0.0000,-0.0000,0.0003,0.0000,999,1001,1001,999
0,111,0.0000,0.0000,0.0000,0.6564,1.3360,0.0000,-1.3127,-2.6720,0.0000,-0.0000,0.0000,0.0000,999,1001,1001,999
0,112,0.0000,0.0000,0.0000,0.6559,1.3364,0.0000,-1.3118,-2.6728,0.0000,-0.0000,0.0000,0.0000,999,1001,1001,999
0,113,0.0000,0.0000,0.0000,0.6555,1.3370,0.0000,-1.3110,-2.6740,0.0000,-0.0000,0.0000,0.0000,999,1001,1001,999
0,114,0.0000,0.0000,0.0000,0.6553,1.3375,0.0000,-1.3107,-2.6749,0.0000,-0.0000,0.0000,0.0000,999,1001,1001,999
0,115,0.0000,0.0000,0.0000,0.6552,1.3379,0.0000,-1.3104,-2.6758,0.0000,-0.0000,0.0000,0.0000,999,1001,1001,999
0,116,0.0000,0.0000,0.0000,0.6548,1.3385,0.0000,-1.3096,-2.6770,0.0000,-0.0000,0.0000,0.0000,999,1001,1001,999
0,117,0.0000,0.0000,0.0000,0.6543,1.3391,0.0000,-1.3085,-2.6781,0.0000,-0.0000,0.0000,0.0000,999,1001,1001,999
0,118,0.0000,0.0000,0.0000,0.6538,1.3395,0.0000,-1.3076,-2.6791,0.0000,-0.0000,0.0000,0.0000,999,1001,1001,999
0,119,0.0000,0.0000,0.0000,0.6533,1.3398,0.0000,-1.3066,-2.6797,0.0000,-0.0000,0.0000,0.0000,999,1001,1001,999
0,120,0.0000,0.0000,0.0000,0.6528,1.3405,0.0000,-1.3057,-2.6810,0.0000,-0.0000,0.0000,0.0000,999,1001,1001,999
0,121,0.0000,0.0000,0.0000,0.6523,1.3409,0.0000,-1.3045,-2.6818,0.0000,-0.0000,0.0000,0.0000,999,1001,1001,999
0,122,0.0000,0.0000,0.0000,0.6517,1.3415,0.0000,-1.3034,-2.6830,0.0000,-0.0000,0.0000,0.0000,999,1001,1001,999
0,123,0.0000,0.0000,0.0000,0.6512,1.3421,0.0000,-1.3024,-2.6842,0.0000,-0.0000,0.0000,0.0000,999,1001,1001,999
0,124,0.0000,0.0000,0.0000,0.6505,1.3428,0.0000,-1.3010,-2.6855,0.0000,-0.0000,0.0000,0.0000,999,1001,1001,999
0,125,0.0000,0.0000,0.0000,0.6501,1.3434,0.0000,-1.3001,-2.6868,0.0000,-0.0000,0.0000,0.0000,999,1001,1001,999
0,126,0.0000,0.0000,0.0000,0.6495,1.3438,0.0000,-1.2990,-2.6877,0.0000,-0.0000,0.0000,0.0000,999,1001,1001,999
0,127,0.0000,0.0000,0.0000,0.6488,1.3443,0.0000,-1.2977,-2.6886,0.0000,-0.0000,0.0000,0.0000,999,1001,1001,999
0,128,0.0000,0.0000,0.0000,0.6482,1.3450,0.0000,-1.2964,-2.6900,0.0000,-0.0000,0.0000,0.0000,999,1001,1001,999
0,129,0.0000,0.0000,0.0000,0.6479,1.3456,0.0000,-1.2957,-2.6913,0.0000,-0.0000,0.0000,0.0000,999,1001,1001,999
0,130,0.0000,0.0000,0.0000,0.6475,1.3462,0.0000,-1.2949,-2.6924,0.0000,-0.0000,0.0000,0.0000,999,1001,1001,999
0,131,0.0000,0.0000,0.0000,0.6466,1.3467,0.0000,-1.2932,-2.6934,0.0000,-0.0000,0.0000,0.0000,999,1001,1001,999
0,132,0.0000,0.0000,0.0000,0.6463,1.3472,0.0000,-1.2927,-2.6944,0.0000,-0.0000,0.0000,0.0000,999,1001,1001,999
0,133,0.0000,0.0000,0.0000,0.6458,1.3477,0.0000,-1.2917,-2.6955,0.0000,-0.0000,0.0000,0.0000,999,1001,1001,999
0,134,0.0000,0.0000,0.0000,0.6456,1.3483,0.0000,-1.2912,-2.6966,0.0000,-0.0000,0.0000,0.0000,999,1001,1001,999
0,135,0.0000,0.0000,0.0000,0.6450,1.3491,0.0000,-1.2900,-2.6982,0.0000,-0.0000,0.0000,0.0000,999,1001,1001,999
0,136,0.0000,0.0000,0.0000,0.6446,1.3500,0.0000,-1.2893,-2.7000,0.0000,-0.0000,0.0000,0.0000,999,1001,1001,999
0,137,0.0000,0.0000,0.0000,0.6442,1.3506,0.0000,-1.2883,-2.7012,0.0000,-0.0000,0.0000,0.0000,999,1001,1001,999
0,138,0.0000,0.0000,0.0000,0.6434,1.3517,0.0000,-1.2867,-2.7033,0.0000,-0.0000,0.0000,0.0000,999,1001,1001,999
0,139,0.0000,0.0000,0.0000,0.6428,1.3530,0.0000,-1.2855,-2.7060,0.0000,-0.0000,0.0086,0.0000,999,1001,1001,999
0,140,0.0000,0.0000,0.0000,0.6421,1.3538,0.0000,-1.2842,-2.7075,0.0000,-0.0000,0.0005,0.0000,999,1001,1001,999
0,141,0.0000,0.0000,0.0000,0.6416,1.3545,0.0000,-1.2833,-2.7090,0.0000,-0.0000,0.0000,0.0000,999,1001,1001,999
0,142,0.0000,0.0000,0.0000,0.6408,1.3551,0.0000,-1.2817,-2.7103,0.0000,-0.0000,0.0000,0.0000,999,1001,1001,999
0,143,0.0000,0.0000,0.0000,0.6404,1.3557,0.0000,-1.2808,-2.7115,0.0000,-0.0000,0.0000,0.0000,999,1001,1001,999
0,144,0.0000,0.0000,0.0000,0.6397,1.3566,0.0000,-1.2794,-2.7132,0.0000,-0.0000,0.0000,0.0000,999,1001,1001,999
0,145,0.0000,0.0000,0.0000,0.6390,1.3573,0.0000,-1.2781,-2.7146,0.0000,-0.0000,0.0000,0.0000,999,1001,1001,999
0,146,0.0000,0.0000,0.0000,0.6382,1.3578,0.0000,-1.2764,-2.7155,0.0000,-0.0000,0.0000,0.0000,999,1001,1001,999
0,147,0.0000,0.0000,0.0000,0.6373,1.3589,0.0000,-1.2746,-2.7178,0.0000,-0.0000,0.0151,0.0000,999,1001,1001,999
0,148,0.0000,0.0000,0.0000,0.6367,1.3596,0.0000,-1.2733,-2.7191,0.0000,-0.0000,0.0009,0.0000,999,1001,1001,999
0,149,0.0000,0.0000,0.0000,0.6358,1.3607,0.0000,-1.2715,-2.7214,0.0000,-0.0000,0.0001,0.0000,999,1001,1001,999
0,150,0.0000,0.0000,0.0000,0.6351,1.3618,0.0000,-1.2702,-2.7235,0.0000,-0.0000,0.0000,0.0000,999,1001,1001,999
0,151,0.0000,0.0000,0.0000,0.6344,1.3623,0.0000,-1.2688,-2.7245,0.0000,-0.0000,0.0000,0.0000,999,1001,1001,999
0,152,0.0000,0.0000,0.0000,0.6336,1.3635,0.0000,-1.2671,-2.7270,0.0000,-0.0000,0.0000,0.0000,999,1001,1001,999
0,153,0.0000,0.0000,0.0000,0.6330,1.3641,0.0000,-1.2660,-2.7281,0.0000,-0.0000,0.0000,0.0000,999,1001,1001,999
0,154,0.0000,0.0000,0.0000,0.6324,1.3651,0.0000,-1.2647,-2.7302,0.0000,-0.0000,0.0151,0.0000,999,1001,1001,999
0,155,0.0000,0.0000,0.0000,0.6316,1.3661,0.0000,-1.2631,-2.7322,0.0000,-0.0000,0.0009,0.0000,999,1001,1001,999
0,156,0.0000,0.0000,0.0000,0.6303,1.3672,0.0000,-1.2605,-2.7344,0.0000,-0.0000,0.0465,0.0000,999,1001,1001,999
0,157,0.0000,0.0000,0.0000,0.6296,1.3684,0.0000,-1.2592,-2.7369,0.0000,-0.0000,0.0028,0.0000,999,1001,1001,999
0,158,0.0000,0.0000,0.0000,0.6285,1.3695,0.0000,-1.2570,-2.7389,0.0000,-0.0000,0.0002,0.0000,999,1001,1001,999
0,159,0.0000,0.0000,0.0000,0.6273,1.3707,0.0000,-1.2546,-2.7413,0.0000,-0.0000,0.0000,0.0000,999,1001,1001,999
0,160,0.0000,0.0000,0.0000,0.6270,1.3720,0.0000,-1.2541,-2.7439,0.0000,-0.0000,0.0000,0.0000,999,1001,1001,999
0,161,0.0000,0.0000,0.0000,0.6260,1.3728,0.0000,-1.2520,-2.7456,0.0000,-0.0000,0.0000,0.0000,999,1001,1001,999
0,162,0.0000,0.0000,0.0000,0.6250,1.3734,0.0000,-1.2500,-2.7469,0.0000,-0.0000,0.0000,0.0000,999,1001,1001,999
0,163,0.0000,0.0000,0.0000,0.6243,1.3745,0.0000,-1.2485,-2.7489,0.0000,-0.0000,0.0000,0.0000,999,1001,1001,999
0,164,0.0000,0.0000,0.0000,0.6232,1.3756,0.0000,-1.2465,-2.7512,0.0000,-0.0000,0.0000,0.0000,999,1001,1001,999
0,165,0.0000,0.0000,0.0000,0.6218,1.3762,0.0000,-1.2436,-2.7524,0.0000,-0.0000,0.0000,0.0000,999,1001,1001,999
0,166,0.0000,0.0000,0.0000,0.6209,1.3769,0.0000,-1.2418,-2.7539,0.0000,-0.0000,0.0000,0.0000,999,1001,1001,999
0,167,0.0000,0.0000,0.0000,0.6195,1.3776,0.0000,-1.2389,-2.7552,0.0000,-0.0000,0.0000,0.0000,999,1001,1001,999
0,168,0.0000,0.0000,0.0000,0.6185,1.3781,0.0000,-1.2370,-2.7562,0.0000,-0.0000,0.0000,0.0000,999,1001,1001,999
0,169,0.0000,0.0000,0.0000,0.6172,1.3793,0.0000,-1.2344,-2.7587,0.0000,-0.0000,0.0000,0.0000,999,1001,1001,999
0,170,0.0000,0.0000,0.0000,0.6161,1.3800,0.0000,-1.2321,-2.7599,0.0000,-0.0000,0.0000,0.0000,999,1001,1001,999
0,171,0.0000,0.0000,0.0000,0.6163,1.3715,0.0000,-1.2326,-2.7430,0.0000,-0.0221,-0.0108,0.0000,999,1001,1001,999
0,172,0.0000,0.0000,0.0000,0.6163,1.3695,0.0000,-1.2326,-2.7390,0.0000,0.1365,-0.0007,0.0000,999,1001,1001,999
0,173,0.0000,0.0000,0.0000,0.6183,1.3703,0.0000,-1.2366,-2.7406,0.0000,0.0261,-0.0000,0.0000,999,1001,1001,999
0,174,0.0000,0.0000,0.0000,0.6140,1.3631,0.0000,-1.2280,-2.7262,0.0000,-0.0452,-0.0000,0.0000,999,1001,1001,999
0,175,0.0000,0.0000,0.0000,0.6140,1.3555,0.0000,-1.2281,-2.7110,0.0000,-0.0027,-0.0000,0.0000,999,1001,1001,999
0,176,0.0000,0.0000,0.0000,0.6125,1.3556,0.0000,-1.2251,-2.7112,0.0000,0.0349,-0.0584,0.0000,1000,1000,1000,1000
0,177,0.0000,0.0000,0.0005,0.6145,1.3547,0.0005,-1.2289,-2.7094,-0.0000,0.0021,-0.0035,0.0055,999,1001,1001,999
0,178,0.0000,0.0000,0.0005,0.6133,1.3557,0.0005,-1.2266,-2.7114,-0.0000,0.0001,0.0462,0.0003,999,1001,1001,999
0,179,0.0000,0.0000,0.0005,0.6123,1.3571,0.0005,-1.2245,-2.7142,-0.0000,0.0000,0.0028,0.0000,999,1001,1001,999
0,180,0.0000,0.0000,0.0005,0.6113,1.3583,0.0005,-1.2226,-2.7166,-0.0000,0.0000,0.0002,0.0000,999,1001,1001,999
0,181,0.0000,0.0000,0.0005,0.6102,1.3591,0.0005,-1.2203,-2.7183,-0.0000,0.0000,0.0000,0.0000,999,1001,1001,999
0,182,0.0000,0.0000,0.0005,0.6096,1.3615,0.0005,-1.2192,-2.7231,0.0000,0.0000,0.0000,0.0000,999,1001,1001,999
0,183,0.0000,0.0000,0.0005,0.6093,1.3603,0.0005,-1.2187,-2.7206,0.0000,0.0179,0.0151,0.0000,999,1001,1001,999
0,184,0.0000,0.0000,0.0005,0.6086,1.3585,0.0005,-1.2173,-2.7170,0.0000,-0.0422,0.0009,0.0000,999,1001,1001,999
0,185,0.0000,0.0000,0.0005,0.6063,1.3595,0.0005,-1.2125,-2.7190,0.0000,-0.0459,0.0001,0.0000,999,1001,1001,999
0,186,0.0000,0.0000,0.0005,0.6072,1.3596,0.0005,-1.2144,-2.7193,0.0000,0.0086,0.0000,0.0000,999,1001,1001,999
0,187,0.0000,0.0000,0.0005,0.6036,1.3560,0.0005,-1.2073,-2.7120,0.0000,0.0319,0.0000,0.0000,999,1001,1001,999
0,188,0.0000,0.0000,0.0005,0.6034,1.3505,0.0005,-1.2069,-2.7010,0.0000,0.0019,0.0000,0.0000,999,1001,1001,999
0,189,0.0000,0.0000,0.0005,0.6031,1.3486,0.0005,-1.2062,-2.6972,0.0000,0.0001,-0.0108,0.0000,999,1001,1001,999
0,190,0.0000,0.0000,0.0005,0.6046,1.3486,0.0005,-1.2093,-2.6973,0.0000,0.0000,-0.0007,0.0000,999,1001,1001,999
0,191,0.0000,0.0000,0.0005,0.6031,1.3507,0.0005,-1.2062,-2.7013,0.0000,-0.0046,-0.0000,0.0000,999,1001,1001,999
0,192,0.0000,0.0000,0.0005,0.6020,1.3508,0.0005,-1.2039,-2.7016,0.0000,-0.0003,-0.0000,0.0000,999,1001,1001,999
0,193,0.0000,0.0000,0.0005,0.6010,1.3521,0.0005,-1.2021,-2.7042,0.0000,-0.0680,-0.0000,0.0000,999,1001,1001,999
0,194,0.0000,0.0000,0.0005,0.5990,1.3528,0.0005,-1.1980,-2.7056,0.0000,-0.0041,-0.0000,0.0000,999,1001,1001,999
0,195,0.0000,0.0000,0.0005,0.5973,1.3547,0.0005,-1.1946,-2.7094,0.0000,-0.0002,-0.0000,0.0000,999,1001,1001,999
0,196,0.0000,0.0000,0.0005,0.5959,1.3521,0.0005,-1.1919,-2.7042,0.0000,0.0314,-0.0000,0.0000,999,1001,1001,999
0,197,0.0000,0.0000,0.0005,0.5951,1.3523,0.0005,-1.1901,-2.7045,0.0000,-0.0661,0.0049,0.0000,999,1001,1001,999
0,198,0.0000,0.0000,0.0005,0.5925,1.3510,0.0005,-1.1850,-2.7021,0.0000,-0.0086,-0.0105,0.0000,999,1001,1001,999
0,199,0.0000,0.0000,0.0005,0.5940,1.3456,0.0005,-1.1879,-2.6912,0.0000,0.0309,-0.0006,0.0000,999,1001,1001,999
0,200,0.0000,0.0000,0.0005,0.5886,1.3433,0.0005,-1.1772,-2.6865,0.0000,0.0019,-0.0000,0.0000,999,1001,1001,999
0,201,0.0000,0.0000,0.0005,0.5875,1.3427,0.0005,-1.1749,-2.6854,0.0000,0.0001,-0.0000,0.0000,999,1001,1001,999
0,202,0.0000,0.0000,0.0005,0.5885,1.3420,0.0005,-1.1770,-2.6840,0.0000,0.0000,-0.0000,0.0000,999,1001,1001,999
0,203,0.0000,0.0000,0.0005,0.5887,1.3422,0.0005,-1.1774,-2.6845,0.0000,0.0000,-0.0584,0.0000,1000,1000,1000,1000
0,204,0.0000,0.0000,0.0005,0.5873,1.3435,0.0005,-1.1746,-2.6871,0.0000,0.0000,-0.0035,0.0000,999,1001,1001,999
0,205,0.0000,0.0000,0.0005,0.5856,1.3443,0.0005,-1.1712,-2.6886,0.0000,0.0000,-0.0002,0.0000,999,1001,1001,999
0,206,0.0000,0.0000,0.0005,0.5849,1.3457,0.0005,-1.1699,-2.6915,0.0000,0.0000,-0.0000,0.0000,999,1001,1001,999
0,207,0.0000,0.0000,0.0005,0.5841,1.3463,0.0005,-1.1682,-2.6926,0.0000,0.0000,-0.0000,0.0000,999,1001,1001,999
0,208,0.0000,0.0000,0.0005,0.5830,1.3479,0.0005,-1.1660,-2.6958,0.0000,0.0000,-0.0000,0.0000,999,1001,1001,999
0,209,0.0000,0.0000,0.0005,0.5823,1.3488,0.0005,-1.1645,-2.6976,0.0000,0.0000,-0.0000,0.0000,999,1001,1001,999
0,210,0.0000,0.0000,0.0005,0.5809,1.3499,0.0005,-1.1618,-2.6998,0.0000,0.0000,-0.0000,0.0000,999,1001,1001,999
0,211,0.0000,0.0000,0.0005,0.5797,1.3513,0.0005,-1.1594,-2.7026,0.0000,0.0000,-0.0000,0.0000,999,1001,1001,999
0,212,0.0000,0.0000,0.0005,0.5788,1.3529,0.0005,-1.1576,-2.7058,0.0000,0.0000,-0.0000,0.0000,999,1001,1001,999
0,213,0.0000,0.0000,0.0005,0.5776,1.3540,0.0005,-1.1553,-2.7081,0.0000,0.0000,-0.0000,0.0000,999,1001,1001,999
0,214,0.0000,0.0000,0.0005,0.5778,1.3554,0.0005,-1.1555,-2.7107,0.0000,0.0000,-0.0000,0.0000,999,1001,1001,999
0,215,0.0000,0.0000,0.0005,0.5767,1.3566,0.0005,-1.1534,-2.7131,0.0000,0.0000,-0.0000,0.0000,999,1001,1001,999
0,216,0.0000,0.0000,0.0005,0.5762,1.3577,0.0005,-1.1523,-2.7155,0.0000,0.0000,-0.0000,0.0000,999,1001,1001,999
0,217,0.0000,0.0000,0.0005,0.5758,1.3600,0.0005,-1.1516,-2.7200,0.0000,0.0000,-0.0000,0.0000,999,1001,1001,999
0,218,0.0000,0.0000,0.0005,0.5750,1.3612,0.0005,-1.1500,-2.7225,0.0000,0.0000,-0.0000,0.0000,999,1001,1001,999
0,219,0.0000,0.0000,0.0005,0.5739,1.3626,0.0005,-1.1478,-2.7252,0.0000,0.0000,-0.0000,0.0000,999,1001,1001,999
0,220,0.0000,0.0000,0.0005,0.5727,1.3639,0.0005,-1.1454,-2.7277,0.0000,0.0000,-0.0000,0.0000,999,1001,1001,999
0,221,0.0000,0.0000,0.0005,0.5714,1.3648,0.0005,-1.1427,-2.7295,0.0000,0.0000,-0.0000,0.0000,999,1001,1001,999
0,222,0.0000,0.0000,0.0005,0.5704,1.3653,0.0005,-1.1408,-2.7305,0.0000,0.0000,-0.0000,0.0000,999,1001,1001,999
0,223,0.0000,0.0000,0.0005,0.5696,1.3665,0.0005,-1.1391,-2.7329,0.0000,0.0000,-0.0000,0.0000,999,1001,1001,999
0,224,0.0000,0.0000,0.0005,0.5696,1.3673,0.0005,-1.1393,-2.7346,0.0000,0.0000,-0.0000,0.0000,999,1001,1001,999
0,225,0.0000,0.0000,0.0005,0.5681,1.3682,0.0005,-1.1363,-2.7365,0.0000,0.0000,-0.0000,0.0000,999,1001,1001,999
0,226,0.0000,0.0000,0.0005,0.5670,1.3693,0.0005,-1.1339,-2.7387,0.0000,0.0000,-0.0000,0.0000,999,1001,1001,999
0,227,0.0000,0.0000,0.0005,0.5661,1.3702,0.0005,-1.1322,-2.7403,0.0000,0.0000,-0.0000,0.0000,999,1001,1001,999
0,228,0.0000,0.0000,0.0005,0.5654,1.3709,0.0005,-1.1308,-2.7417,0.0000,0.0000,-0.0000,0.0000,999,1001,1001,999
0,229,0.0000,0.0000,0.0005,0.5646,1.3713,0.0005,-1.1291,-2.7427,0.0000,0.0000,-0.0000,0.0000,999,1001,1001,999
0,230,0.0000,0.0000,0.0005,0.5631,1.3727,0.0005,-1.1263,-2.7454,0.0000,0.0000,-0.0000,0.0000,999,1001,1001,999
0,231,0.0000,0.0000,0.0005,0.5624,1.3720,0.0005,-1.1249,-2.7441,0.0000,0.0000,-0.0000,0.0000,999,1001,1001,999
0,232,0.0000,0.0000,0.0005,0.5608,1.3732,0.0005,-1.1217,-2.7465,0.0000,0.0000,-0.0000,0.0000,999,1001,1001,999
0,233,0.0000,0.0000,0.0005,0.5604,1.3738,0.0005,-1.1208,-2.7477,0.0000,0.0000,-0.0000,0.0000,999,1001,1001,999
0,234,0.0000,0.0000,0.0005,0.5596,1.3746,0.0005,-1.1193,-2.7492,0.0000,0.0000,-0.0000,0.0000,999,1001,1001,999
0,235,0.0000,0.0000,0.0005,0.5588,1.3760,0.0005,-1.1176,-2.7520,0.0000,0.0000,-0.0000,0.0000,999,1001,1001,999
0,236,0.0000,0.0000,0.0005,0.5585,1.3770,0.0005,-1.1170,-2.7540,0.0000,0.0000,-0.0000,0.0000,999,1001,1001,999
0,237,0.0000,0.0000,0.0005,0.5573,1.3782,0.0005,-1.1145,-2.7565,0.0000,0.0000,-0.0000,0.0000,999,1001,1001,999
0,238,0.0000,0.0000,0.0005,0.5569,1.3798,0.0005,-1.1137,-2.7596,0.0000,0.0000,-0.0000,0.0000,999,1001,1001,999
0,239,0.0000,0.0000,0.0005,0.5563,1.3811,0.0005,-1.1126,-2.7621,0.0000,0.0000,-0.0000,0.0000,999,1001,1001,999
0,240,0.0000,0.0000,0.0005,0.5554,1.3830,0.0005,-1.1108,-2.7660,0.0000,0.0000,-0.0000,0.0000,999,1001,1001,999
0,241,0.0000,0.0000,0.0005,0.5542,1.3853,0.0005,-1.1085,-2.7706,0.0000,0.0000,-0.0000,0.0000,999,1001,1001,999
0,242,0.0000,0.0000,0.0005,0.5532,1.3866,0.0005,-1.1064,-2.7732,0.0000,0.0000,-0.0000,0.0000,999,1001,1001,999
0,243,0.0000,0.0000,0.0005,0.5523,1.3876,0.0005,-1.1046,-2.7752,0.0000,0.0000,-0.0000,0.0000,999,1001,1001,999
0,244,0.0000,0.0000,0.0005,0.5507,1.3893,0.0005,-1.1014,-2.7787,0.0000,0.0000,-0.0000,0.0000,999,1001,1001,999
0,245,0.0000,0.0000,0.0005,0.5499,1.3903,0.0005,-1.0998,-2.7806,0.0000,0.0000,-0.0000,0.0000,999,1001,1001,999
0,246,0.0000,0.0000,0.0005,0.5488,1.3919,0.0005,-1.0976,-2.7837,0.0000,0.0000,-0.0000,0.0000,999,1001,1001,999
0,247,0.0000,0.0000,0.0005,0.5484,1.3932,0.0005,-1.0967,-2.7863,0.0000,0.0000,-0.0000,0.0000,999,1001,1001,999
0,248,0.0000,0.0000,0.0005,0.5473,1.3948,0.0005,-1.0945,-2.7896,0.0000,0.0000,-0.0000,0.0000,999,1001,1001,999
0,249,0.0000,0.0000,0.0005,0.5469,1.3967,0.0005,-1.0937,-2.7933,0.0000,0.0000,-0.0000,0.0000,999,1001,1001,999
0,250,0.0000,0.0000,0.0005,0.5428,1.3964,0.0005,-1.0856,-2.7929,0.0000,-0.0946,-0.0610,0.0000,999,1001,1001,999
0,251,0.0000,0.0000,-0.0002,0.5356,1.3765,-0.0002,-1.0712,-2.7530,0.0004,-0.0057,0.0487,-0.0470,999,1001,1001,999
0,252,0.0000,0.0000,0.0005,0.5431,1.3498,0.0005,-1.0862,-2.6996,-0.0008,0.0197,-0.0255,0.0964,999,1001,1001,999
0,253,0.0000,0.0000,0.0009,0.5385,1.3513,0.0009,-1.0771,-2.7025,-0.0000,-0.0062,-0.0398,0.0058,1000,1000,1000,1000
0,254,0.0000,0.0000,0.0018,0.5524,1.3279,0.0018,-1.1047,-2.6558,-0.0002,-0.0436,-0.0086,0.0271,1000,1000,1000,1000
0,255,0.0000,0.0000,0.0026,0.5413,1.3023,0.0026,-1.0827,-2.6047,-0.0009,-0.0026,-0.0005,0.1101,1000,1000,1000,1000
0,256,0.0000,0.0000,0.0036,0.5528,1.2896,0.0036,-1.1057,-2.5792,-0.0001,0.0614,-0.0000,0.0122,1000,1000,1000,1000
0,257,0.0000,0.0000,0.0049,0.5498,1.2898,0.0049,-1.0996,-2.5797,-0.0003,0.0102,-0.0000,0.0330,1000,1000,1000,1000
0,258,0.0000,0.0000,0.0059,0.5390,1.2806,0.0059,-1.0781,-2.5612,-0.0010,0.0006,-0.0441,0.1254,1000,1000,1000,1000
0,259,0.0000,0.0000,0.0061,0.5438,1.2649,0.0061,-1.0877,-2.5298,0.0001,-0.0045,-0.0611,-0.0095,1000,1000,1000,1000
0,260,0.0000,0.0000,0.0072,0.5452,1.2629,0.0072,-1.0904,-2.5258,-0.0002,0.0613,-0.0037,0.0195,1000,1000,1000,1000
0,261,0.0000,0.0000,0.0080,0.5533,1.2623,0.0080,-1.1067,-2.5246,-0.0004,0.0702,-0.0002,0.0481,1000,1000,1000,1000
0,262,0.0000,0.0000,0.0070,0.5587,1.2582,0.0070,-1.1174,-2.5165,0.0002,0.0042,-0.0441,-0.0294,1000,1000,1000,1000
0,263,0.0000,0.0000,0.0065,0.5551,1.2574,0.0065,-1.1102,-2.5149,0.0003,-0.0244,-0.0027,-0.0317,1000,1000,1000,1000
0,264,0.0000,0.0000,0.0063,0.5958,1.2562,0.0063,-1.1916,-2.5125,0.0000,-0.0015,-0.0002,-0.0019,1000,1000,1000,1000
0,265,0.0000,0.0000,0.0063,0.6174,1.2497,0.0063,-1.2348,-2.4995,0.0000,0.0064,-0.0000,-0.0001,1000,1000,1000,1000
0,266,0.0000,0.0000,0.0063,0.5967,1.2452,0.0063,-1.1934,-2.4903,0.0000,-0.0243,-0.0000,-0.0000,1000,1000,1000,1000
0,267,0.0000,0.0000,0.0063,0.6157,1.2398,0.0063,-1.2314,-2.4796,0.0000,-0.0015,-0.0584,-0.0000,1000,1000,1000,1000
0,268,0.0000,0.0000,0.0063,0.6127,1.2371,0.0063,-1.2255,-2.4741,0.0000,-0.0001,0.0051,-0.0000,1000,1000,1000,1000
0,269,0.0000,0.0000,0.0063,0.6144,1.2413,0.0063,-1.2287,-2.4825,0.0000,-0.0000,0.0052,-0.0000,1000,1000,1000,1000
0,270,0.0000,0.0000,0.0063,0.6121,1.2425,0.0063,-1.2242,-2.4850,0.0000,-0.0000,-0.0059,-0.0000,1000,1000,1000,1000
0,271,0.0000,0.0000,0.0063,0.6106,1.2446,0.0063,-1.2211,-2.4892,0.0000,-0.0000,-0.0004,-0.0000,1000,1000,1000,1000
0,272,0.0000,0.0000,0.0063,0.6095,1.2463,0.0063,-1.2189,-2.4927,0.0000,-0.0000,-0.0000,-0.0000,1000,1000,1000,1000
0,273,0.0000,0.0000,0.0063,0.6075,1.2485,0.0063,-1.2150,-2.4970,0.0000,-0.0000,-0.0000,-0.0000,1000,1000,1000,1000
0,274,0.0000,0.0000,0.0063,0.6069,1.2491,0.0063,-1.2137,-2.4983,0.0000,-0.0000,-0.0000,-0.0000,1000,1000,1000,1000
0,275,0.0000,0.0000,0.0063,0.6057,1.2506,0.0063,-1.2114,-2.5012,0.0000,-0.0000,-0.0000,-0.0000,1000,1000,1000,1000
0,276,0.0000,0.0000,0.0063,0.6048,1.2527,0.0063,-1.2097,-2.5054,0.0000,-0.0000,-0.0000,-0.0000,1000,1000,1000,1000
0,277,0.0000,0.0000,0.0063,0.6035,1.2550,0.0063,-1.2070,-2.5100,0.0000,-0.0080,-0.0000,-0.0000,1000,1000,1000,1000
0,278,0.0000,0.0000,0.0063,0.6023,1.2576,0.0063,-1.2045,-2.5153,0.0000,-0.0005,-0.0000,-0.0000,1000,1000,1000,1000
0,279,0.0000,0.0000,0.0063,0.6013,1.2587,0.0063,-1.2025,-2.5175,0.0000,-0.0000,-0.0000,-0.0000,1000,1000,1000,1000
0,280,0.0000,0.0000,0.0063,0.6000,1.2611,0.0063,-1.2000,-2.5223,0.0000,-0.0000,-0.0000,-0.0000,1000,1000,1000,1000
0,281,0.0000,0.0000,0.0063,0.5988,1.2637,0.0063,-1.1977,-2.5274,0.0000,-0.0000,-0.0000,-0.0000,1000,1000,1000,1000
0,282,0.0000,0.0000,0.0063,0.5976,1.2663,0.0063,-1.1952,-2.5326,0.0000,-0.0000,-0.0000,-0.0000,1000,1000,1000,1000
0,283,0.0000,0.0000,0.0063,0.5973,1.2675,0.0063,-1.1945,-2.5349,0.0000,-0.0000,-0.0000,-0.0000,1000,1000,1000,1000
0,284,0.0000,0.0000,0.0063,0.5962,1.2701,0.0063,-1.1924,-2.5401,0.0000,-0.0000,-0.0000,-0.0000,1000,1000,1000,1000
0,285,0.0000,0.0000,0.0063,0.5942,1.2716,0.0063,-1.1885,-2.5431,0.0000,-0.0000,-0.0000,-0.0000,1000,1000,1000,1000
0,286,0.0000,0.0000,0.0063,0.5935,1.2737,0.0063,-1.1870,-2.5474,0.0000,-0.0000,-0.0000,-0.0000,1000,1000,1000,1000
0,287,0.0000,0.0000,0.0063,0.5915,1.2759,0.0063,-1.1829,-2.5518,0.0000,-0.0000,-0.0000,-0.0000,1000,1000,1000,1000
0,288,0.0000,0.0000,0.0063,0.5910,1.2778,0.0063,-1.1820,-2.5557,0.0000,-0.0000,-0.0000,-0.0000,1000,1000,1000,1000
0,289,0.0000,0.0000,0.0063,0.5899,1.2795,0.0063,-1.1797,-2.5589,0.0000,-0.0000,-0.0000,-0.0000,1000,1000,1000,1000
0,290,0.0000,0.0000,0.0063,0.5898,1.2825,0.0063,-1.1796,-2.5650,0.0000,-0.0000,-0.0000,-0.0000,1000,1000,1000,1000
0,291,0.0000,0.0000,0.0063,0.5899,1.2844,0.0063,-1.1797,-2.5689,0.0000,-0.0000,-0.0000,-0.0000,1000,1000,1000,1000
0,292,0.0000,0.0000,0.0063,0.5887,1.2859,0.0063,-1.1775,-2.5717,0.0000,-0.0000,-0.0000,-0.0000,1000,1000,1000,1000
0,293,0.0000,0.0000,0.0063,0.5878,1.2873,0.0063,-1.1757,-2.5746,0.0000,-0.0000,-0.0000,-0.0000,1000,1000,1000,1000
0,294,0.0000,0.0000,0.0063,0.5871,1.2887,0.0063,-1.1742,-2.5775,0.0000,-0.0000,-0.0000,-0.0000,1000,1000,1000,1000
0,295,0.0000,0.0000,0.0063,0.5866,1.2914,0.0063,-1.1733,-2.5828,0.0000,-0.0000,-0.0000,-0.0000,1000,1000,1000,1000
0,296,0.0000,0.0000,0.0063,0.5858,1.2930,0.0063,-1.1717,-2.5860,0.0000,-0.0000,-0.0000,-0.0000,1000,1000,1000,1000
0,297,0.0000,0.0000,0.0063,0.5851,1.2957,0.0063,-1.1702,-2.5913,0.0000,-0.0000,-0.0000,-0.0000,1000,1000,1000,1000
0,298,0.0000,0.0000,0.0063,0.5831,1.2969,0.0063,-1.1663,-2.5938,0.0000,-0.0000,-0.0000,-0.0000,1000,1000,1000,1000
0,299,0.0000,0.0000,0.0063,0.5827,1.2989,0.0063,-1.1654,-2.5977,0.0000,-0.0000,-0.0000,-0.0000,1000,1000,1000,1000
0,300,0.0000,0.0000,0.0063,0.5819,1.3014,0.0063,-1.1637,-2.6027,0.0000,-0.0000,-0.0000,-0.0000,1000,1000,1000,1000
0,301,0.0000,0.0000,0.0063,0.5810,1.3041,0.0063,-1.1620,-2.6082,0.0000,-0.0000,-0.0000,-0.0000,1000,1000,1000,1000
0,302,0.0000,0.0000,0.0063,0.5807,1.3071,0.0063,-1.1614,-2.6141,0.0000,-0.0000,-0.0000,-0.0000,1000,1000,1000,1000
0,303,0.0000,0.0000,0.0063,0.5799,1.3088,0.0063,-1.1598,-2.6176,0.0000,-0.0000,-0.0000,-0.0000,1000,1000,1000,1000
0,304,0.0000,0.0000,0.0063,0.5805,1.3104,0.0063,-1.1611,-2.6208,0.0000,-0.0000,-0.0000,-0.0000,1000,1000,1000,1000
0,305,0.0000,0.0000,0.0063,0.5790,1.3118,0.0063,-1.1580,-2.6236,0.0000,-0.0000,-0.0000,-0.0000,1000,1000,1000,1000
0,306,0.0000,0.0000,0.0063,0.5787,1.3137,0.0063,-1.1573,-2.6273,0.0000,-0.0000,-0.0000,-0.0000,1000,1000,1000,1000
0,307,0.0000,0.0000,0.0063,0.5771,1.3152,0.0063,-1.1543,-2.6304,0.0000,-0.0000,-0.0000,-0.0000,1000,1000,1000,1000
0,308,0.0000,0.0000,0.0063,0.5757,1.3173,0.0063,-1.1515,-2.6346,0.0000,-0.0000,0.0265,-0.0000,1000,1000,1000,1000
0,309,0.0000,0.0000,0.0063,0.5743,1.3197,0.0063,-1.1487,-2.6393,0.0000,-0.0000,0.0016,-0.0000,1000,1000,1000,1000
0,310,0.0000,0.0000,0.0063,0.5735,1.3222,0.0063,-1.1469,-2.6444,0.0000,-0.0000,0.0001,-0.0000,1000,1000,1000,1000
0,311,0.0000,0.0000,0.0063,0.5738,1.3239,0.0063,-1.1475,-2.6477,0.0000,-0.0000,0.0000,-0.0000,1000,1000,1000,1000
0,312,0.0000,0.0000,0.0063,0.5735,1.3255,0.0063,-1.1470,-2.6510,0.0000,-0.0000,0.0000,-0.0000,1000,1000,1000,1000
0,313,0.0000,0.0000,0.0063,0.5718,1.3283,0.0063,-1.1435,-2.6566,0.0000,-0.0000,0.0000,-0.0000,1000,1000,1000,1000
0,314,0.0000,0.0000,0.0063,0.5714,1.3291,0.0063,-1.1429,-2.6582,0.0000,-0.0000,0.0000,-0.0000,1000,1000,1000,1000
0,315,0.0000,0.0000,0.0063,0.5712,1.3306,0.0063,-1.1424,-2.6612,0.0000,-0.0000,0.0000,-0.0000,1000,1000,1000,1000
0,316,0.0000,0.0000,0.0063,0.5698,1.3337,0.0063,-1.1397,-2.6673,0.0000,-0.0000,0.0000,-0.0000,999,1001,1001,999
0,317,0.0000,0.0000,0.0063,0.5693,1.3361,0.0063,-1.1386,-2.6722,0.0000,-0.0000,0.0000,-0.0000,999,1001,1001,999
0,318,0.0000,0.0000,0.0063,0.5681,1.3377,0.0063,-1.1362,-2.6753,0.0000,-0.0000,0.0000,-0.0000,999,1001,1001,999
0,319,0.0000,0.0000,0.0063,0.5674,1.3391,0.0063,-1.1348,-2.6782,0.0000,-0.0000,0.0000,-0.0000,999,1001,1001,999
0,320,0.0000,0.0000,0.0063,0.5674,1.3417,0.0063,-1.1347,-2.6835,0.0000,-0.0000,0.0000,-0.0000,999,1001,1001,999
0,321,0.0000,0.0000,0.0063,0.5672,1.3435,0.0063,-1.1343,-2.6871,0.0000,-0.0000,0.0000,-0.0000,999,1001,1001,999
0,322,0.0000,0.0000,0.0063,0.5661,1.3443,0.0063,-1.1321,-2.6886,0.0000,-0.0000,0.0000,-0.0000,999,1001,1001,999
0,323,0.0000,0.0000,0.0063,0.5656,1.3458,0.0063,-1.1312,-2.6916,0.0000,-0.0000,0.0000,-0.0000,999,1001,1001,999
0,324,0.0000,0.0000,0.0063,0.5653,1.3479,0.0063,-1.1305,-2.6958,0.0000,-0.0000,0.0000,-0.0000,999,1001,1001,999
0,325,0.0000,0.0000,0.0063,0.5646,1.3499,0.0063,-1.1293,-2.6998,0.0000,-0.0000,0.0000,-0.0000,999,1001,1001,999
0,326,0.0000,0.0000,0.0063,0.5643,1.3509,0.0063,-1.1286,-2.7019,0.0000,-0.0000,0.0000,-0.0000,999,1001,1001,999
0,327,0.0000,0.0000,0.0063,0.5633,1.3533,0.0063,-1.1266,-2.7067,0.0000,-0.0000,0.0000,-0.0000,999,1001,1001,999
0,328,0.0000,0.0000,0.0063,0.5630,1.3554,0.0063,-1.1261,-2.7109,0.0000,-0.0000,0.0000,-0.0000,999,1001,1001,999
0,329,0.0000,0.0000,0.0063,0.5625,1.3573,0.0063,-1.1249,-2.7146,0.0000,-0.0000,0.0000,-0.0000,999,1001,1001,999
0,330,0.0000,0.0000,0.0063,0.5617,1.3597,0.0063,-1.1234,-2.7194,0.0000,-0.0000,0.0000,-0.0000,999,1001,1001,999
0,331,0.0000,0.0000,0.0063,0.5606,1.3610,0.0063,-1.1212,-2.7220,0.0000,-0.0000,0.0000,-0.0000,999,1001,1001,999
0,332,0.0000,0.0000,0.0063,0.5600,1.3628,0.0063,-1.1200,-2.7256,0.0000,-0.0000,0.0000,-0.0000,999,1001,1001,999
0,333,0.0000,0.0000,0.0063,0.5599,1.3644,0.0063,-1.1198,-2.7289,0.0000,-0.0000,0.0000,-0.0000,999,1001,1001,999
0,334,0.0000,0.0000,0.0063,0.5592,1.3666,0.0063,-1.1183,-2.7332,0.0000,-0.0000,0.0000,-0.0000,999,1001,1001,999
0,335,0.0000,0.0000,0.0063,0.5585,1.3681,0.0063,-1.1170,-2.7362,0.0000,-0.0000,0.0000,-0.0000,999,1001,1001,999
0,336,0.0000,0.0000,0.0063,0.5590,1.3692,0.0063,-1.1180,-2.7383,0.0000,-0.0000,0.0000,-0.0000,999,1001,1001,999
0,337,0.0000,0.0000,0.0063,0.5588,1.3709,0.0063,-1.1176,-2.7418,0.0000,-0.0000,0.0000,-0.0000,999,1001,1001,999
0,338,0.0000,0.0000,0.0063,0.5576,1.3715,0.0063,-1.1153,-2.7429,0.0000,-0.0000,0.0000,-0.0000,999,1001,1001,999
0,339,0.0000,0.0000,0.0063,0.5574,1.3732,0.0063,-1.1148,-2.7464,0.0000,-0.0000,0.0000,-0.0000,999,1001,1001,999
0,340,0.0000,0.0000,0.0063,0.5568,1.3752,0.0063,-1.1136,-2.7504,0.0000,-0.0000,0.0000,-0.0000,999,1001,1001,999
0,341,0.0000,0.0000,0.0063,0.5557,1.3759,0.0063,-1.1115,-2.7518,0.0000,-0.0000,0.0000,-0.0000,999,1001,1001,999
0,342,0.0000,0.0000,0.0063,0.5557,1.3773,0.0063,-1.1114,-2.7547,0.0000,-0.0000,0.0000,-0.0000,999,1001,1001,999
0,343,0.0000,0.0000,0.0063,0.5555,1.3790,0.0063,-1.1110,-2.7579,0.0000,-0.0000,0.0000,-0.0000,999,1001,1001,999
0,344,0.0000,0.0000,0.0063,0.5552,1.3815,0.0063,-1.1104,-2.7630,0.0000,-0.0000,0.0000,-0.0000,999,1001,1001,999
0,345,0.0000,0.0000,0.0063,0.5555,1.3822,0.0063,-1.1110,-2.7643,0.0000,-0.0000,0.0000,-0.0000,999,1001,1001,999
0,346,0.0000,0.0000,0.0063,0.5553,1.3837,0.0063,-1.1106,-2.7675,0.0000,-0.0000,0.0000,-0.0000,999,1001,1001,999
0,347,0.0000,0.0000,0.0063,0.5546,1.3860,0.0063,-1.1092,-2.7719,0.0000,-0.0000,0.0000,-0.0000,999,1001,1001,999
0,348,0.0000,0.0000,0.0063,0.5547,1.3871,0.0063,-1.1095,-2.7741,0.0000,-0.0000,0.0000,-0.0000,999,1001,1001,999
0,349,0.0000,0.0000,0.0063,0.5526,1.3887,0.0063,-1.1052,-2.7773,0.0000,-0.0000,0.0000,-0.0000,999,1001,1001,999
0,350,0.0000,0.0000,0.0063,0.5523,1.3907,0.0063,-1.1047,-2.7814,0.0000,-0.0000,0.0000,-0.0000,999,1001,1001,999
0,351,0.0000,0.0000,0.0063,0.5523,1.3911,0.0063,-1.1045,-2.7822,0.0000,-0.0000,0.0000,-0.0000,999,1001,1001,999
0,352,0.0000,0.0000,0.0063,0.5507,1.3935,0.0063,-1.1014,-2.7870,0.0000,-0.0000,0.0000,-0.0000,999,1001,1001,999
0,353,0.0000,0.0000,0.0063,0.5495,1.3938,0.0063,-1.0989,-2.7877,0.0000,-0.0000,0.0000,-0.0000,999,1001,1001,999
0,354,0.0000,0.0000,0.0063,0.5493,1.3940,0.0063,-1.0985,-2.7880,0.0000,-0.0000,0.0000,-0.0000,999,1001,1001,999
0,355,0.0000,0.0000,0.0063,0.5477,1.3955,0.0063,-1.0955,-2.7909,0.0000,-0.0000,0.0000,-0.0000,999,1001,1001,999
0,356,0.0000,0.0000,0.0063,0.5464,1.3967,0.0063,-1.0929,-2.7934,0.0000,-0.0000,0.0000,-0.0000,999,1001,1001,999
0,357,0.0000,0.0000,0.0063,0.5448,1.3978,0.0063,-1.0897,-2.7956,0.0000,-0.0000,0.0000,-0.0000,999,1001,1001,999
0,358,0.0000,0.0000,0.0063,0.5438,1.3989,0.0063,-1.0876,-2.7978,0.0000,-0.0000,0.0000,-0.0000,999,1001,1001,999
0,359,0.0000,0.0000,0.0063,0.5432,1.4002,0.0063,-1.0864,-2.8004,0.0000,-0.0000,0.0000,-0.0000,999,1001,1001,999
0,360,0.0000,0.0000,0.0063,0.5426,1.4012,0.0063,-1.0852,-2.8023,0.0000,-0.0000,0.0000,-0.0000,999,1001,1001,999
0,361,0.0000,0.0000,0.0063,0.5419,1.4026,0.0063,-1.0838,-2.8052,0.0000,-0.0000,0.0000,-0.0000,999,1001,1001,999
0,362,0.0000,0.0000,0.0063,0.5417,1.4052,0.0063,-1.0833,-2.8104,0.0000,-0.0000,0.0000,-0.0000,999,1001,1001,999
0,363,0.0000,0.0000,0.0063,0.5415,1.4065,0.0063,-1.0831,-2.8131,0.0000,-0.0000,0.0000,-0.0000,999,1001,1001,999
0,364,0.0000,0.0000,0.0063,0.5402,1.4080,0.0063,-1.0804,-2.8159,0.0000,-0.0000,0.0000,-0.0000,999,1001,1001,999
0,365,0.0000,0.0000,0.0063,0.5412,1.4091,0.0063,-1.0824,-2.8183,0.0000,-0.0000,0.0000,-0.0000,999,1001,1001,999
0,366,0.0000,0.0000,0.0063,0.5403,1.4098,0.0063,-1.0806,-2.8196,0.0000,-0.0000,0.0000,-0.0000,999,1001,1001,999
0,367,0.0000,0.0000,0.0063,0.5401,1.4115,0.0063,-1.0803,-2.8231,0.0000,-0.0000,0.0000,-0.0000,999,1001,1001,999
0,368,0.0000,0.0000,0.0063,0.5401,1.4128,0.0063,-1.0801,-2.8255,0.0000,-0.0000,0.0000,-0.0000,999,1001,1001,999
0,369,0.0000,0.0000,0.0063,0.5404,1.4130,0.0063,-1.0808,-2.8259,0.0000,-0.0000,0.0000,-0.0000,999,1001,1001,999
0,370,0.0000,0.0000,0.0063,0.5399,1.4147,0.0063,-1.0798,-2.8294,0.0000,-0.0000,0.0000,-0.0000,999,1001,1001,999
0,371,0.0000,0.0000,0.0063,0.5388,1.4158,0.0063,-1.0777,-2.8316,0.0000,-0.0000,0.0000,-0.0000,999,1001,1001,999
0,372,0.0000,0.0000,0.0063,0.5387,1.4180,0.0063,-1.0774,-2.8361,0.0000,-0.0000,0.0000,-0.0000,999,1001,1001,999
0,373,0.0000,0.0000,0.0063,0.5377,1.4188,0.0063,-1.0754,-2.8375,0.0000,-0.0000,0.0000,-0.0000,999,1001,1001,999
0,374,0.0000,0.0000,0.0063,0.5379,1.4219,0.0063,-1.0758,-2.8437,0.0000,-0.0000,0.0000,-0.0000,999,1001,1001,999
0,375,0.0000,0.0000,0.0063,0.5377,1.4235,0.0063,-1.0753,-2.8470,0.0000,-0.0000,0.0000,-0.0000,999,1001,1001,999
0,376,0.0000,0.0000,0.0063,0.5369,1.4252,0.0063,-1.0737,-2.8503,0.0000,-0.0000,0.0000,-0.0000,999,1001,1001,999
0,377,0.0000,0.0000,0.0063,0.5359,1.4252,0.0063,-1.0718,-2.8505,0.0000,-0.0000,0.0000,-0.0000,999,1001,1001,999
0,378,0.0000,0.0000,0.0063,0.5351,1.4257,0.0063,-1.0701,-2.8513,0.0000,-0.0000,0.0000,-0.0000,999,1001,1001,999
0,379,0.0000,0.0000,0.0063,0.5339,1.4261,0.0063,-1.0677,-2.8522,0.0000,-0.0000,0.0000,-0.0000,999,1001,1001,999
0,380,0.0000,0.0000,0.0063,0.5347,1.4269,0.0063,-1.0694,-2.8539,0.0000,-0.0000,0.0000,-0.0000,999,1001,1001,999
0,381,0.0000,0.0000,0.0063,0.5342,1.4284,0.0063,-1.0684,-2.8568,0.0000,-0.0000,0.0000,-0.0000,999,1001,1001,999
0,382,0.0000,0.0000,0.0063,0.5339,1.4312,0.0063,-1.0677,-2.8625,0.0000,-0.0000,0.0000,-0.0000,999,1001,1001,999
0,383,0.0000,0.0000,0.0063,0.5320,1.4334,0.0063,-1.0639,-2.8668,0.0000,-0.0000,0.0000,-0.0000,999,1001,1001,999
0,384,0.0000,0.0000,0.0063,0.5330,1.4348,0.0063,-1.0659,-2.8696,0.0000,-0.0000,0.0000,-0.0000,999,1001,1001,999
0,385,0.0000,0.0000,0.0063,0.5325,1.4353,0.0063,-1.0650,-2.8706,0.0000,-0.0000,0.0000,-0.0000,999,1001,1001,999
0,386,0.0000,0.0000,0.0063,0.5328,1.4365,0.0063,-1.0655,-2.8730,0.0000,-0.0000,0.0000,-0.0000,999,1001,1001,999
0,387,0.0000,0.0000,0.0063,0.5324,1.4376,0.0063,-1.0648,-2.8752,0.0000,-0.0000,0.0000,-0.0000,999,1001,1001,999
0,388,0.0000,0.0000,0.0063,0.5321,1.4387,0.0063,-1.0641,-2.8773,0.0000,-0.0000,0.0000,-0.0000,999,1001,1001,999
0,389,0.0000,0.0000,0.0063,0.5322,1.4397,0.0063,-1.0643,-2.8795,0.0000,-0.0000,0.0000,-0.0000,999,1001,1001,999
0,390,0.0000,0.0000,0.0063,0.5324,1.4404,0.0063,-1.0648,-2.8808,0.0000,-0.0000,0.0000,-0.0000,999,1001,1001,999
0,391,0.0000,0.0000,0.0063,0.5320,1.4409,0.0063,-1.0639,-2.8817,0.0000,-0.0000,0.0000,-0.0000,999,1001,1001,999
0,392,0.0000,0.0000,0.0063,0.5310,1.4405,0.0063,-1.0620,-2.8810,0.0000,-0.0000,0.0000,-0.0000,999,1001,1001,999
0,393,0.0000,0.0000,0.0063,0.5296,1.4415,0.0063,-1.0592,-2.8830,0.0000,-0.0000,0.0000,-0.0000,999,1001,1001,999
0,394,0.0000,0.0000,0.0063,0.5298,1.4423,0.0063,-1.0596,-2.8847,0.0000,-0.0000,0.0000,-0.0000,999,1001,1001,999
0,395,0.0000,0.0000,0.0063,0.5282,1.4440,0.0063,-1.0564,-2.8879,0.0000,-0.0000,0.0000,-0.0000,999,1001,1001,999
0,396,0.0000,0.0000,0.0063,0.5275,1.4454,0.0063,-1.0550,-2.8908,0.0000,-0.0000,0.0000,-0.0000,999,1001,1001,999
0,397,0.0000,0.0000,0.0063,0.5264,1.4451,0.0063,-1.0528,-2.8902,0.0000,-0.0000,0.0000,-0.0000,999,1001,1001,999
0,398,0.0000,0.0000,0.0063,0.5259,1.4459,0.0063,-1.0519,-2.8917,0.0000,-0.0000,0.0000,-0.0000,999,1001,1001,999
0,399,0.0000,0.0000,0.0063,0.5252,1.4474,0.0063,-1.0503,-2.8948,0.0000,-0.0000,0.0000,-0.0000,999,1001,1001,999
0,400,0.0000,0.0000,0.0063,0.5240,1.4482,0.0063,-1.0481,-2.8965,0.0000,-0.0000,0.0000,-0.0000,999,1001,1001,999
0,401,0.0000,0.0000,0.0063,0.5236,1.4493,0.0063,-1.0473,-2.8986,0.0000,-0.0000,0.0000,-0.0000,999,1001,1001,999
0,402,0.0000,0.0000,0.0063,0.5235,1.4498,0.0063,-1.0471,-2.8996,0.0000,-0.0000,0.0000,-0.0000,999,1001,1001,999
0,403,0.0000,0.0000,0.0063,0.5234,1.4506,0.0063,-1.0468,-2.9012,0.0000,-0.0000,0.0000,-0.0000,999,1001,1001,999
0,404,0.0000,0.0000,0.0063,0.5232,1.4525,0.0063,-1.0464,-2.9050,0.0000,-0.0000,0.0000,-0.0000,999,1001,1001,999
0,405,0.0000,0.0000,0.0063,0.5227,1.4536,0.0063,-1.0453,-2.9072,0.0000,-0.0000,0.0000,-0.0000,999,1001,1001,999
0,406,0.0000,0.0000,0.0063,0.5229,1.4553,0.0063,-1.0457,-2.9106,0.0000,-0.0000,0.0000,-0.0000,999,1001,1001,999
0,407,0.0000,0.0000,0.0063,0.5223,1.4551,0.0063,-1.0447,-2.9102,0.0000,-0.0000,0.0000,-0.0000,999,1001,1001,999
0,408,0.0000,0.0000,0.0063,0.5220,1.4560,0.0063,-1.0440,-2.9120,0.0000,-0.0000,0.0000,-0.0000,999,1001,1001,999
0,409,0.0000,0.0000,0.0063,0.5211,1.4563,0.0063,-1.0421,-2.9125,0.0000,-0.0000,0.0000,-0.0000,999,1001,1001,999
0,410,0.0000,0.0000,0.0063,0.5211,1.4579,0.0063,-1.0421,-2.9157,0.0000,-0.0000,0.0000,-0.0000,999,1001,1001,999
0,411,0.0000,0.0000,0.0063,0.5208,1.4579,0.0063,-1.0415,-2.9158,0.0000,-0.0000,0.0000,-0.0000,999,1001,1001,999
0,412,0.0000,0.0000,0.0063,0.5206,1.4582,0.0063,-1.0413,-2.9163,0.0000,-0.0000,0.0000,-0.0000,999,1001,1001,999
0,413,0.0000,0.0000,0.0063,0.5202,1.4592,0.0063,-1.0405,-2.9183,0.0000,-0.0000,0.0000,-0.0000,999,1001,1001,999
0,414,0.0000,0.0000,0.0063,0.5195,1.4599,0.0063,-1.0390,-2.9199,0.0000,-0.0000,0.0000,-0.0000,999,1001,1001,999
0,415,0.0000,0.0000,0.0063,0.5195,1.4610,0.0063,-1.0391,-2.9221,0.0000,-0.0000,0.0000,-0.0000,999,1001,1001,999
0,416,0.0000,0.0000,0.0063,0.5193,1.4617,0.0063,-1.0385,-2.9235,0.0000,-0.0000,0.0000,-0.0000,999,1001,1001,999
0,417,0.0000,0.0000,0.0063,0.5172,1.4623,0.0063,-1.0344,-2.9245,0.0000,-0.0000,0.0000,-0.0000,999,1001,1001,999
0,418,0.0000,0.0000,0.0063,0.5177,1.4629,0.0063,-1.0355,-2.9259,0.0000,-0.0000,0.0000,-0.0000,999,1001,1001,999
0,419,0.0000,0.0000,0.0063,0.5177,1.4637,0.0063,-1.0353,-2.9273,0.0000,-0.0000,0.0000,-0.0000,999,1001,1001,999
0,420,0.0000,0.0000,0.0063,0.5186,1.4646,0.0063,-1.0373,-2.9292,0.0000,-0.0000,0.0000,-0.0000,999,1001,1001,999
0,421,0.0000,0.0000,0.0063,0.5186,1.4662,0.0063,-1.0371,-2.9324,0.0000,-0.0000,0.0000,-0.0000,999,1001,1001,999
0,422,0.0000,0.0000,0.0063,0.5185,1.4673,0.0063,-1.0369,-2.9346,0.0000,-0.0000,0.0000,-0.0000,999,1001,1001,999
0,423,0.0000,0.0000,0.0063,0.5191,1.4670,0.0063,-1.0383,-2.9340,0.0000,-0.0000,0.0000,-0.0000,999,1001,1001,999
0,424,0.0000,0.0000,0.0063,0.5201,1.4670,0.0063,-1.0402,-2.9340,0.0000,-0.0000,0.0000,-0.0000,999,1001,1001,999
0,425,0.0000,0.0000,0.0063,0.5208,1.4682,0.0063,-1.0416,-2.9364,0.0000,-0.0000,0.0000,-0.0000,999,1001,1001,999
0,426,0.0000,0.0000,0.0063,0.5213,1.4694,0.0063,-1.0426,-2.9388,0.0000,-0.0000,0.0000,-0.0000,999,1001,1001,999
0,427,0.0000,0.0000,0.0063,0.5212,1.4701,0.0063,-1.0424,-2.9402,0.0000,-0.0000,0.0000,-0.0000,999,1001,1001,999
0,428,0.0000,0.0000,0.0063,0.5217,1.4704,0.0063,-1.0435,-2.9408,0.0000,-0.0000,0.0000,-0.0000,999,1001,1001,999
0,429,0.0000,0.0000,0.0063,0.5225,1.4722,0.0063,-1.0449,-2.9443,0.0000,-0.0000,0.0000,-0.0000,999,1001,1001,999
0,430,0.0000,0.0000,0.0063,0.5224,1.4713,0.0063,-1.0448,-2.9426,0.0000,-0.0000,0.0000,-0.0000,999,1001,1001,999
0,431,0.0000,0.0000,0.0063,0.5215,1.4711,0.0063,-1.0430,-2.9422,0.0000,-0.0000,0.0000,-0.0000,999,1001,1001,999
0,432,0.0000,0.0000,0.0063,0.5221,1.4723,0.0063,-1.0441,-2.9446,0.0000,-0.0000,0.0000,-0.0000,999,1001,1001,999
0,433,0.0000,0.0000,0.0063,0.5220,1.4717,0.0063,-1.0440,-2.9434,0.0000,-0.0000,0.0000,-0.0000,999,1001,1001,999
0,434,0.0000,0.0000,0.0063,0.5221,1.4713,0.0063,-1.0442,-2.9426,0.0000,-0.0000,0.0000,-0.0000,999,1001,1001,999
0,435,0.0000,0.0000,0.0063,0.5218,1.4711,0.0063,-1.0437,-2.9421,0.0000,-0.0000,0.0000,-0.0000,999,1001,1001,999
0,436,0.0000,0.0000,0.0063,0.5211,1.4708,0.0063,-1.0423,-2.9416,0.0000,-0.0000,0.0000,-0.0000,999,1001,1001,999
0,437,0.0000,0.0000,0.0063,0.5209,1.4715,0.0063,-1.0418,-2.9431,0.0000,-0.0000,0.0000,-0.0000,999,1001,1001,999
0,438,0.0000,0.0000,0.0063,0.5200,1.4727,0.0063,-1.0400,-2.9453,0.0000,-0.0000,0.0000,-0.0000,999,1001,1001,999
0,439,0.0000,0.0000,0.0063,0.5204,1.4731,0.0063,-1.0408,-2.9462,0.0000,-0.0000,0.0000,-0.0000,999,1001,1001,999
0,440,0.0000,0.0000,0.0063,0.5204,1.4732,0.0063,-1.0408,-2.9464,0.0000,-0.0000,0.0000,-0.0000,999,1001,1001,999
0,441,0.0000,0.0000,0.0063,0.5198,1.4753,0.0063,-1.0395,-2.9507,0.0000,-0.0000,0.0000,-0.0000,999,1001,1001,999
0,442,0.0000,0.0000,0.0063,0.5203,1.4757,0.0063,-1.0406,-2.9513,0.0000,-0.0000,0.0000,-0.0000,999,1001,1001,999
0,443,0.0000,0.0000,0.0063,0.5211,1.4765,0.0063,-1.0422,-2.9530,0.0000,-0.0000,0.0000,-0.0000,999,1001,1001,999
0,444,0.0000,0.0000,0.0063,0.5209,1.4765,0.0063,-1.0418,-2.9529,0.0000,-0.0000,0.0000,-0.0000,999,1001,1001,999
0,445,0.0000,0.0000,0.0063,0.5214,1.4767,0.0063,-1.0428,-2.9534,0.0000,-0.0000,0.0000,-0.0000,999,1001,1001,999
0,446,0.0000,0.0000,0.0063,0.5213,1.4780,0.0063,-1.0427,-2.9560,0.0000,-0.0000,0.0000,-0.0000,999,1001,1001,999
0,447,0.0000,0.0000,0.0063,0.5211,1.4782,0.0063,-1.0422,-2.9563,0.0000,-0.0000,0.0000,-0.0000,999,1001,1001,999
0,448,0.0000,0.0000,0.0063,0.5213,1.4793,0.0063,-1.0426,-2.9587,0.0000,-0.0000,0.0000,-0.0000,999,1001,1001,999
0,449,0.0000,0.0000,0.0063,0.5221,1.4799,0.0063,-1.0442,-2.9598,0.0000,-0.0000,0.0000,-0.0000,999,1001,1001,999
0,450,0.0000,0.0000,0.0063,0.5227,1.4807,0.0063,-1.0454,-2.9614,0.0000,-0.0000,0.0000,-0.0000,999,1001,1001,999
0,451,0.0000,0.0000,0.0063,0.5222,1.4816,0.0063,-1.0444,-2.9632,0.0000,-0.0000,0.0000,-0.0000,999,1001,1001,999
0,452,0.0000,0.0000,0.0063,0.5220,1.4812,0.0063,-1.0439,-2.9624,0.0000,-0.0000,0.0000,-0.0000,999,1001,1001,999
0,453,0.0000,0.0000,0.0063,0.5217,1.4826,0.0063,-1.0435,-2.9652,0.0000,-0.0000,0.0000,-0.0000,999,1001,1001,999
0,454,0.0000,0.0000,0.0063,0.5225,1.4833,0.0063,-1.0449,-2.9665,0.0000,-0.0000,0.0000,-0.0000,999,1001,1001,999
0,455,0.0000,0.0000,0.0063,0.5224,1.4839,0.0063,-1.0448,-2.9678,0.0000,-0.0000,0.0000,-0.0000,999,1001,1001,999
0,456,0.0000,0.0000,0.0063,0.5213,1.4842,0.0063,-1.0427,-2.9685,0.0000,-0.0000,0.0514,-0.0000,999,1001,1001,999
0,457,0.0000,0.0000,0.0063,0.5206,1.4844,0.0063,-1.0411,-2.9688,0.0000,-0.0000,0.0031,-0.0000,999,1001,1001,999
0,458,0.0000,0.0000,0.0063,0.5211,1.4850,0.0063,-1.0421,-2.9700,0.0000,-0.0000,0.0002,-0.0000,999,1001,1001,999
0,459,0.0000,0.0000,0.0063,0.5206,1.4860,0.0063,-1.0412,-2.9720,0.0000,-0.0000,0.0000,-0.0000,999,1001,1001,999
0,460,0.0000,0.0000,0.0063,0.5208,1.4860,0.0063,-1.0416,-2.9721,0.0000,-0.0000,0.0000,-0.0000,999,1001,1001,999
0,461,0.0000,0.0000,0.0063,0.5201,1.4877,0.0063,-1.0403,-2.9753,0.0000,-0.0000,0.0265,-0.0000,999,1001,1001,999
0,462,0.0000,0.0000,0.0063,0.5203,1.4880,0.0063,-1.0405,-2.9760,0.0000,-0.0000,0.0016,-0.0000,999,1001,1001,999
0,463,0.0000,0.0000,0.0063,0.5202,1.4904,0.0063,-1.0403,-2.9808,0.0000,-0.0000,0.0001,-0.0000,999,1001,1001,999
0,464,0.0000,0.0000,0.0063,0.5202,1.4919,0.0063,-1.0404,-2.9838,0.0000,-0.0000,0.0000,-0.0000,999,1001,1001,999
0,465,0.0000,0.0000,0.0063,0.5211,1.4927,0.0063,-1.0421,-2.9854,0.0000,-0.0000,0.0000,-0.0000,999,1001,1001,999
0,466,0.0000,0.0000,0.0063,0.5215,1.4937,0.0063,-1.0431,-2.9874,0.0000,-0.0000,0.0000,-0.0000,999,1001,1001,999
1,467,-0.0000,0.0000,0.0063,0.5211,1.4944,0.0063,-1.0422,-2.9889,0.0000,-0.0000,0.0000,-0.0000,999,1001,1001,999
1,468,-0.0000,0.0000,0.0063,0.5202,1.4959,0.0063,-1.0404,-2.9919,0.0000,-0.0000,0.0000,-0.0000,999,1001,1001,999
1,469,-0.0000,0.0000,0.0063,0.5186,1.4972,0.0063,-1.0373,-2.9943,0.0000,-0.0000,0.0000,-0.0000,999,1001,1001,999
1,470,-0.0000,0.0000,0.0063,0.5174,1.4982,0.0063,-1.0347,-2.9964,0.0000,-0.0000,0.0000,-0.0000,999,1001,1001,999
1,471,-0.0000,0.0000,0.0063,0.5172,1.4985,0.0063,-1.0344,-2.9969,0.0000,-0.0000,0.0000,-0.0000,999,1001,1001,999
1,472,-0.0000,0.0000,0.0063,0.5168,1.5001,0.0063,-1.0335,-3.0002,0.0000,-0.0000,0.0000,-0.0000,999,1001,1001,999
1,473,-0.0000,0.0000,0.0063,0.5163,1.5001,0.0063,-1.0326,-3.0002,0.0000,-0.0000,0.0000,-0.0000,999,1001,1001,999
1,474,-0.0000,0.0000,0.0063,0.5150,1.5005,0.0063,-1.0300,-3.0010,-0.0127,-0.0000,0.0000,-0.0000,999,1001,1001,999
1,475,-0.0000,0.0000,0.0063,0.5138,1.5008,0.0063,-1.0275,-3.0015,0.0000,-0.0000,0.0000,-0.0000,999,1001,1001,999
1,476,-0.0000,0.0000,0.0063,0.5136,1.5011,0.0063,-1.0272,-3.0023,0.0000,-0.0000,0.0000,-0.0000,999,1001,1001,999
1,477,-0.0000,0.0000,0.0063,0.5138,1.5011,0.0063,-1.0277,-3.0022,-0.0127,-0.0000,0.0000,-0.0000,999,1001,1001,999
1,478,-0.0000,0.0000,0.0063,0.5132,1.5016,0.0063,-1.0264,-3.0031,0.0000,-0.0000,0.0000,-0.0000,999,1001,1001,999
1,479,-0.0000,0.0000,0.0063,0.5135,1.5021,0.0063,-1.0269,-3.0042,0.0000,-0.0000,0.0000,-0.0000,999,1001,1001,999
1,480,-0.0000,0.0000,0.0065,0.5138,1.5029,0.0065,-1.0275,-3.0057,-0.0004,-0.0000,0.0000,0.0524,999,1001,1001,999
1,481,-0.0000,0.0000,0.0068,0.5129,1.5028,0.0068,-1.0257,-3.0056,-0.0000,-0.0000,0.0000,0.0032,999,1001,1001,999
1,482,-0.0000,0.0000,0.0068,0.5136,1.5038,0.0068,-1.0272,-3.0076,-0.0000,-0.0000,0.0000,0.0002,999,1001,1001,999
1,483,-0.0000,0.0000,0.0068,0.5145,1.5042,0.0068,-1.0290,-3.0085,-0.0000,-0.0000,0.0000,0.0000,999,1001,1001,999
1,484,-0.0000,0.0000,0.0068,0.5141,1.5055,0.0068,-1.0282,-3.0109,-0.0000,-0.0000,0.0000,0.0000,999,1001,1001,999
1,485,-0.0000,0.0000,0.0068,0.5131,1.5057,0.0068,-1.0261,-3.0114,0.0000,-0.0000,0.0000,0.0000,999,1001,1001,999
1,486,-0.0000,0.0000,0.0068,0.5144,1.5061,0.0068,-1.0287,-3.0123,0.0000,-0.0000,0.0000,0.0000,999,1001,1001,999
1,487,-0.0000,0.0000,0.0068,0.5140,1.5068,0.0068,-1.0280,-3.0136,0.0000,-0.0000,0.0000,0.0000,999,1001,1001,999
1,488,-0.0000,0.0000,0.0068,0.5141,1.5074,0.0068,-1.0283,-3.0148,0.0000,-0.0000,0.0000,0.0000,999,1001,1001,999
1,489,-0.0000,0.0000,0.0068,0.5147,1.5075,0.0068,-1.0294,-3.0150,0.0000,-0.0000,0.0000,0.0000,999,1001,1001,999
1,490,-0.0000,0.0000,0.0068,0.5138,1.5087,0.0068,-1.0275,-3.0174,0.0000,-0.0000,0.0000,0.0000,999,1001,1001,999
1,491,-0.0000,0.0000,0.0068,0.5131,1.5092,0.0068,-1.0261,-3.0185,0.0000,-0.0000,0.0729,0.0000,999,1001,1001,999
1,492,-0.0000,0.0000,0.0068,0.5126,1.5119,0.0068,-1.0252,-3.0238,0.0000,-0.0000,0.0644,0.0000,999,1001,1001,999
1,493,-0.0000,0.0000,0.0068,0.5132,1.5125,0.0068,-1.0263,-3.0250,0.0000,-0.0000,0.0039,0.0000,999,1001,1001,999
1,494,-0.0000,0.0000,0.0068,0.5133,1.5137,0.0068,-1.0265,-3.0273,0.0000,-0.0000,0.0002,0.0000,999,1001,1001,999
1,495,-0.0000,0.0000,0.0068,0.5135,1.5138,0.0068,-1.0270,-3.0276,0.0000,-0.0000,0.0000,0.0000,999,1001,1001,999
1,496,-0.0000,0.0000,0.0068,0.5138,1.5141,0.0068,-1.0275,-3.0281,0.0000,-0.0000,0.0000,0.0000,999,1001,1001,999
1,497,-0.0000,0.0000,0.0068,0.5139,1.5135,0.0068,-1.0278,-3.0270,0.0000,-0.0000,0.0000,0.0000,999,1001,1001,999
1,498,-0.0000,0.0000,0.0068,0.5139,1.5144,0.0068,-1.0277,-3.0288,0.0000,-0.0000,0.0000,0.0000,999,1001,1001,999
1,499,-0.0000,0.0000,0.0068,0.5146,1.5151,0.0068,-1.0292,-3.0303,0.0000,-0.0000,0.0000,0.0000,999,1001,1001,999
1,500,-0.0000,0.0000,0.0068,0.5152,1.5157,0.0068,-1.0304,-3.0313,0.0000,-0.0000,0.0464,0.0000,999,1001,1001,999
1,501,-0.0000,0.0000,0.0068,0.5148,1.5158,0.0068,-1.0297,-3.0316,0.0000,-0.0000,0.0028,0.0000,999,1001,1001,999
1,502,-0.0000,0.0000,0.0068,0.5144,1.5159,0.0068,-1.0288,-3.0318,0.0000,-0.0000,0.0002,0.0000,999,1001,1001,999
1,503,-0.0000,0.0000,0.0068,0.5151,1.5161,0.0068,-1.0302,-3.0321,0.0000,-0.0000,0.0000,0.0000,999,1001,1001,999
1,504,-0.0000,0.0000,0.0068,0.5148,1.5166,0.0068,-1.0295,-3.0331,-0.0136,-0.0000,0.0000,0.0000,999,1001,1001,999
1,505,-0.0000,0.0000,0.0068,0.5146,1.5169,0.0068,-1.0291,-3.0338,0.0000,-0.0000,0.0000,0.0000,999,1001,1001,999
1,506,-0.0000,0.0000,0.0068,0.5150,1.5177,0.0068,-1.0301,-3.0355,0.0000,-0.0000,0.0000,0.0000,1001,1003,1003,1001
1,507,-0.0000,0.0000,0.0068,0.5147,1.5174,0.0068,-1.0294,-3.0347,0.0000,-0.0000,0.0000,0.0000,1002,1004,1004,1002
1,508,-0.0000,0.0000,0.0068,0.5155,1.5173,0.0068,-1.0311,-3.0347,0.0000,-0.0000,0.0000,0.0000,1002,1004,1004,1002
1,509,-0.0000,0.0000,0.0068,0.5160,1.5173,0.0068,-1.0321,-3.0346,0.0000,-0.0000,0.0000,0.0000,1006,1008,1008,1006
1,510,-0.0000,0.0000,0.0068,0.5173,1.5173,0.0068,-1.0346,-3.0345,0.0000,-0.0000,0.0000,0.0000,1008,1010,1010,1008
1,511,-0.0000,0.0000,0.0068,0.5176,1.5181,0.0068,-1.0353,-3.0363,0.0000,-0.0000,0.0000,0.0000,1008,1010,1010,1008
1,512,-0.0000,0.0000,0.0068,0.5173,1.5183,0.0068,-1.0347,-3.0367,0.0000,-0.0000,0.0000,0.0000,1013,1015,1015,1013
1,513,-0.0000,0.0000,0.0068,0.5176,1.5179,0.0068,-1.0352,-3.0358,0.0000,-0.0000,0.0000,0.0000,1015,1017,1017,1015
1,514,-0.0000,0.0000,0.0068,0.5180,1.5195,0.0068,-1.0361,-3.0389,0.0000,-0.0000,0.0464,0.0000,1015,1017,1017,1015
1,515,-0.0000,0.0000,0.0068,0.5183,1.5190,0.0068,-1.0367,-3.0381,0.0000,-0.0000,0.0028,0.0000,1020,1022,1022,1020
1,516,-0.0000,0.0000,0.0068,0.5179,1.5191,0.0068,-1.0358,-3.0382,0.0000,-0.0000,0.0002,0.0000,1023,1025,1025,1023
1,517,-0.0000,0.0000,0.0068,0.5185,1.5188,0.0068,-1.0369,-3.0375,0.0000,-0.0000,0.0000,0.0000,1023,1025,1025,1023
1,518,-0.0000,0.0000,0.0068,0.5185,1.5205,0.0068,-1.0369,-3.0410,0.0000,-0.0000,0.0880,0.0000,1025,1027,1027,1025
1,519,-0.0000,0.0000,0.0068,0.5184,1.5202,0.0068,-1.0368,-3.0404,-0.0136,-0.0000,0.0139,0.0000,1025,1027,1027,1025
1,520,-0.0000,0.0000,0.0068,0.5184,1.5213,0.0068,-1.0368,-3.0425,0.0000,-0.0000,0.0008,0.0000,1025,1027,1027,1025
1,521,-0.0000,0.0000,0.0068,0.5178,1.5160,0.0068,-1.0357,-3.0321,0.0000,-0.0000,-0.1108,0.0000,1025,1027,1027,1025
1,522,-0.0000,0.0000,0.0072,0.5205,1.5174,0.0072,-1.0409,-3.0348,0.0002,0.0065,0.2262,-0.0296,1025,1027,1027,1025
1,523,-0.0000,0.0000,0.0071,0.5279,1.5099,0.0071,-1.0558,-3.0197,0.0000,-0.0042,-0.0405,-0.0018,1025,1027,1027,1025
1,524,-0.0000,0.0000,0.0055,0.5423,1.5131,0.0055,-1.0846,-3.0262,-0.0004,-0.0003,-0.1366,0.0562,1025,1027,1027,1025
1,525,-0.0000,0.0000,0.0051,0.5220,1.4875,0.0051,-1.0439,-2.9750,0.0011,0.0895,0.1593,-0.1365,1025,1027,1027,1025
1,526,-0.0000,0.0000,0.0049,0.5005,1.5045,0.0049,-1.0010,-3.0091,0.0015,0.0054,0.1276,-0.1889,1025,1027,1027,1025
1,527,-0.0000,0.0000,0.0062,0.5122,1.5036,0.0062,-1.0245,-3.0073,-0.0005,0.0504,-0.3168,0.0679,1025,1027,1027,1025
1,528,-0.0000,0.0000,0.0063,0.5089,1.5062,0.0063,-1.0178,-3.0123,-0.0023,-0.0615,0.1036,0.2813,1025,1027,1027,1025
1,529,-0.0000,0.0000,0.0051,0.4884,1.5123,0.0051,-0.9768,-3.0246,0.0004,-0.0433,0.0011,-0.0486,1025,1027,1027,1025
1,530,-0.0000,0.0000,0.0061,0.4717,1.5066,0.0061,-0.9434,-3.0131,0.0044,-0.1206,0.3843,-0.5489,1025,1027,1027,1025
1,531,-0.0000,0.0000,0.0080,0.4910,1.4861,0.0080,-0.9819,-2.9723,0.0021,0.0887,-0.2527,-0.2660,1025,1027,1027,1025
1,532,-0.0000,0.0000,0.0061,0.4893,1.5038,0.0061,-0.9786,-3.0076,-0.0006,0.1040,-0.0999,0.0770,1025,1027,1027,1025
